{ 
  "data" : 
  [
    {
      "Line": "경강",
      "Name": "부발역",
      "lat": 37.2603924,
      "lng": 127.490308
    },
    {
      "Line": "경강",
      "Name": "삼동역",
      "lat": 37.40867752,
      "lng": 127.203359
    },
    {
      "Line": "경강",
      "Name": "경기광주역",
      "lat": 37.39894023,
      "lng": 127.2532736
    },
    {
      "Line": "경강",
      "Name": "초월역",
      "lat": 37.37336832,
      "lng": 127.2999052
    },
    {
      "Line": "경강",
      "Name": "곤지암역",
      "lat": 37.35053595,
      "lng": 127.3462468
    },
    {
      "Line": "경강",
      "Name": "신둔도예촌역",
      "lat": 37.31560508,
      "lng": 127.4052227
    },
    {
      "Line": "경강",
      "Name": "이천역",
      "lat": 37.26422223,
      "lng": 127.4421498
    },
    {
      "Line": "경강",
      "Name": "여주역",
      "lat": 37.2828597,
      "lng": 127.62852
    },
    {
      "Line": "경강",
      "Name": "세종대왕릉역",
      "lat": 37.2936228,
      "lng": 127.5706415
    },
    {
      "Line": "경강",
      "Name": "이매역",
      "lat": 37.39470993,
      "lng": 127.1272961
    },
    {
      "Line": "경강",
      "Name": "판교역",
      "lat": 37.39476222,
      "lng": 127.1111922
    },
    {
      "Line": "경의중앙",
      "Name": "월롱역",
      "lat": 37.79620379,
      "lng": 126.7925632
    },
    {
      "Line": "경의중앙",
      "Name": "이촌역",
      "lat": 37.52244891,
      "lng": 126.9733255
    },
    {
      "Line": "경의중앙",
      "Name": "서빙고역",
      "lat": 37.51955012,
      "lng": 126.988394
    },
    {
      "Line": "경의중앙",
      "Name": "옥수역",
      "lat": 37.54155186,
      "lng": 127.0173802
    },
    {
      "Line": "경의중앙",
      "Name": "응봉역",
      "lat": 37.54994542,
      "lng": 127.0344701
    },
    {
      "Line": "경의중앙",
      "Name": "왕십리역",
      "lat": 37.56126116,
      "lng": 127.0370785
    },
    {
      "Line": "경의중앙",
      "Name": "청량리역",
      "lat": 37.58071852,
      "lng": 127.0484998
    },
    {
      "Line": "경의중앙",
      "Name": "중랑역",
      "lat": 37.5948318,
      "lng": 127.0756623
    },
    {
      "Line": "경의중앙",
      "Name": "상봉역",
      "lat": 37.59669897,
      "lng": 127.0857421
    },
    {
      "Line": "경의중앙",
      "Name": "망우역",
      "lat": 37.59928883,
      "lng": 127.0923583
    },
    {
      "Line": "경의중앙",
      "Name": "양원역",
      "lat": 36.96378243,
      "lng": 129.0912785
    },
    {
      "Line": "경의중앙",
      "Name": "구리역",
      "lat": 37.60325633,
      "lng": 127.1433464
    },
    {
      "Line": "경의중앙",
      "Name": "도농역",
      "lat": 37.60876542,
      "lng": 127.1611605
    },
    {
      "Line": "경의중앙",
      "Name": "양정역",
      "lat": 37.60401174,
      "lng": 127.1946713
    },
    {
      "Line": "경의중앙",
      "Name": "덕소역",
      "lat": 37.58688676,
      "lng": 127.2088246
    },
    {
      "Line": "경의중앙",
      "Name": "도심역",
      "lat": 37.57963547,
      "lng": 127.2226838
    },
    {
      "Line": "경의중앙",
      "Name": "팔당역",
      "lat": 37.54735586,
      "lng": 127.2439526
    },
    {
      "Line": "경의중앙",
      "Name": "운길산역",
      "lat": 37.55464256,
      "lng": 127.3102271
    },
    {
      "Line": "경의중앙",
      "Name": "양수역",
      "lat": 37.54595984,
      "lng": 127.3291338
    },
    {
      "Line": "경의중앙",
      "Name": "신원역",
      "lat": 37.5255748,
      "lng": 127.3730735
    },
    {
      "Line": "경의중앙",
      "Name": "국수역",
      "lat": 37.51617276,
      "lng": 127.3992917
    },
    {
      "Line": "경의중앙",
      "Name": "아신역",
      "lat": 37.51390779,
      "lng": 127.4432114
    },
    {
      "Line": "경의중앙",
      "Name": "오빈역",
      "lat": 37.50614917,
      "lng": 127.4736568
    },
    {
      "Line": "경의중앙",
      "Name": "양평역",
      "lat": 37.52556883,
      "lng": 126.8864193
    },
    {
      "Line": "경의중앙",
      "Name": "원덕역",
      "lat": 37.46876732,
      "lng": 127.5465586
    },
    {
      "Line": "경의중앙",
      "Name": "용문역",
      "lat": 37.48261007,
      "lng": 127.5943715
    },
    {
      "Line": "경의중앙",
      "Name": "지평역",
      "lat": 37.4768771,
      "lng": 127.6296665
    },
    {
      "Line": "경의중앙",
      "Name": "서울역",
      "lat": 37.55331631,
      "lng": 126.9697383
    },
    {
      "Line": "경의중앙",
      "Name": "신촌역",
      "lat": 37.55519546,
      "lng": 126.9369627
    },
    {
      "Line": "경의중앙",
      "Name": "효창공원앞역",
      "lat": 37.53929433,
      "lng": 126.9613936
    },
    {
      "Line": "경의중앙",
      "Name": "공덕역",
      "lat": 37.54453447,
      "lng": 126.9514331
    },
    {
      "Line": "경의중앙",
      "Name": "서강대역",
      "lat": 37.55213127,
      "lng": 126.935494
    },
    {
      "Line": "경의중앙",
      "Name": "홍대입구역",
      "lat": 37.55686353,
      "lng": 126.923765
    },
    {
      "Line": "경의중앙",
      "Name": "수색역",
      "lat": 37.58080849,
      "lng": 126.8956414
    },
    {
      "Line": "경의중앙",
      "Name": "화전역",
      "lat": 37.60330604,
      "lng": 126.8683857
    },
    {
      "Line": "경의중앙",
      "Name": "강매역",
      "lat": 37.61228686,
      "lng": 126.8444948
    },
    {
      "Line": "경의중앙",
      "Name": "행신역",
      "lat": 37.61196662,
      "lng": 126.8342796
    },
    {
      "Line": "경의중앙",
      "Name": "능곡역",
      "lat": 37.61901009,
      "lng": 126.8204224
    },
    {
      "Line": "경의중앙",
      "Name": "곡산역",
      "lat": 37.64575754,
      "lng": 126.8017978
    },
    {
      "Line": "경의중앙",
      "Name": "백마역",
      "lat": 37.6580166,
      "lng": 126.7946029
    },
    {
      "Line": "경의중앙",
      "Name": "풍산역",
      "lat": 37.67232736,
      "lng": 126.7862662
    },
    {
      "Line": "경의중앙",
      "Name": "일산역",
      "lat": 37.6820093,
      "lng": 126.7700045
    },
    {
      "Line": "경의중앙",
      "Name": "탄현역",
      "lat": 37.69397448,
      "lng": 126.7610556
    },
    {
      "Line": "경의중앙",
      "Name": "야당역",
      "lat": 37.7126074,
      "lng": 126.7614495
    },
    {
      "Line": "경의중앙",
      "Name": "운정역",
      "lat": 37.72559277,
      "lng": 126.7671475
    },
    {
      "Line": "경의중앙",
      "Name": "금릉역",
      "lat": 37.75132092,
      "lng": 126.7653875
    },
    {
      "Line": "경의중앙",
      "Name": "금촌역",
      "lat": 37.76615076,
      "lng": 126.7746017
    },
    {
      "Line": "경의중앙",
      "Name": "파주역",
      "lat": 37.81535838,
      "lng": 126.7926913
    },
    {
      "Line": "경의중앙",
      "Name": "문산역",
      "lat": 37.85461245,
      "lng": 126.7873772
    },
    {
      "Line": "경의중앙",
      "Name": "임진강역",
      "lat": 37.88826421,
      "lng": 126.7470603
    },
    {
      "Line": "경의중앙",
      "Name": "디지털미디어시티역",
      "lat": 37.57600202,
      "lng": 126.9012631
    },
    {
      "Line": "경의중앙",
      "Name": "대곡역",
      "lat": 37.63168113,
      "lng": 126.810921
    },
    {
      "Line": "경의중앙",
      "Name": "한남역",
      "lat": 37.52942532,
      "lng": 127.0091865
    },
    {
      "Line": "경의중앙",
      "Name": "용산역",
      "lat": 37.53006915,
      "lng": 126.964815
    },
    {
      "Line": "경의중앙",
      "Name": "회기역",
      "lat": 37.5897782,
      "lng": 127.0580393
    },
    {
      "Line": "경의중앙",
      "Name": "가좌역",
      "lat": 37.56875056,
      "lng": 126.9148106
    },
    {
      "Line": "경춘",
      "Name": "광운대역",
      "lat": 37.62383376,
      "lng": 127.0616906
    },
    {
      "Line": "경춘",
      "Name": "청량리역",
      "lat": 37.58071852,
      "lng": 127.0484998
    },
    {
      "Line": "경춘",
      "Name": "회기역",
      "lat": 37.5897782,
      "lng": 127.0580393
    },
    {
      "Line": "경춘",
      "Name": "상봉역",
      "lat": 37.59669897,
      "lng": 127.0857421
    },
    {
      "Line": "경춘",
      "Name": "망우역",
      "lat": 37.59928883,
      "lng": 127.0923583
    },
    {
      "Line": "경춘",
      "Name": "신내역",
      "lat": 37.61248742,
      "lng": 127.1042669
    },
    {
      "Line": "경춘",
      "Name": "갈매역",
      "lat": 37.63406534,
      "lng": 127.1147426
    },
    {
      "Line": "경춘",
      "Name": "별내역",
      "lat": 37.64205356,
      "lng": 127.1269691
    },
    {
      "Line": "경춘",
      "Name": "퇴계원역",
      "lat": 37.64825136,
      "lng": 127.1435235
    },
    {
      "Line": "경춘",
      "Name": "사릉역",
      "lat": 37.65110718,
      "lng": 127.1769126
    },
    {
      "Line": "경춘",
      "Name": "금곡역",
      "lat": 37.63734436,
      "lng": 127.2075155
    },
    {
      "Line": "경춘",
      "Name": "평내호평역",
      "lat": 37.65320301,
      "lng": 127.2444344
    },
    {
      "Line": "경춘",
      "Name": "천마산역",
      "lat": 37.6592205,
      "lng": 127.2850491
    },
    {
      "Line": "경춘",
      "Name": "마석역",
      "lat": 37.65277422,
      "lng": 127.3116774
    },
    {
      "Line": "경춘",
      "Name": "대성리역",
      "lat": 37.68398291,
      "lng": 127.3796926
    },
    {
      "Line": "경춘",
      "Name": "청평역",
      "lat": 37.73550205,
      "lng": 127.4266046
    },
    {
      "Line": "경춘",
      "Name": "상천역",
      "lat": 37.77017487,
      "lng": 127.4544975
    },
    {
      "Line": "경춘",
      "Name": "가평역",
      "lat": 37.81450566,
      "lng": 127.5107348
    },
    {
      "Line": "경춘",
      "Name": "굴봉산역",
      "lat": 37.83205898,
      "lng": 127.5577698
    },
    {
      "Line": "경춘",
      "Name": "백양리역",
      "lat": 37.83078819,
      "lng": 127.5893159
    },
    {
      "Line": "경춘",
      "Name": "강촌역",
      "lat": 37.80570741,
      "lng": 127.6341287
    },
    {
      "Line": "경춘",
      "Name": "김유정역",
      "lat": 37.81843831,
      "lng": 127.7143057
    },
    {
      "Line": "경춘",
      "Name": "남춘천역",
      "lat": 37.86403969,
      "lng": 127.7238142
    },
    {
      "Line": "경춘",
      "Name": "춘천역",
      "lat": 37.88449835,
      "lng": 127.7166939
    },
    {
      "Line": "경춘",
      "Name": "중랑역",
      "lat": 37.5948318,
      "lng": 127.0756623
    },
    {
      "Line": "공항",
      "Name": "마곡나루역",
      "lat": 37.56670899,
      "lng": 126.8274074
    },
    {
      "Line": "공항",
      "Name": "김포공항역",
      "lat": 37.56194774,
      "lng": 126.8019069
    },
    {
      "Line": "공항",
      "Name": "계양역",
      "lat": 37.57176634,
      "lng": 126.7362714
    },
    {
      "Line": "공항",
      "Name": "검암역",
      "lat": 37.56924921,
      "lng": 126.6736388
    },
    {
      "Line": "공항",
      "Name": "서울역",
      "lat": 37.55331631,
      "lng": 126.9697383
    },
    {
      "Line": "공항",
      "Name": "공덕역",
      "lat": 37.54453447,
      "lng": 126.9514331
    },
    {
      "Line": "공항",
      "Name": "홍대입구역",
      "lat": 37.55686353,
      "lng": 126.923765
    },
    {
      "Line": "공항",
      "Name": "디지털미디어시티역",
      "lat": 37.57600202,
      "lng": 126.9012631
    },
    {
      "Line": "공항",
      "Name": "청라국제도시역",
      "lat": 37.55645368,
      "lng": 126.6246449
    },
    {
      "Line": "공항",
      "Name": "운서역",
      "lat": 37.49280526,
      "lng": 126.4937254
    },
    {
      "Line": "공항",
      "Name": "공항화물청사역",
      "lat": 37.45905522,
      "lng": 126.4774964
    },
    {
      "Line": "공항",
      "Name": "인천공항1터미널역",
      "lat": 37.44751771,
      "lng": 126.452579
    },
    {
      "Line": "공항",
      "Name": "인천공항2터미널역",
      "lat": 37.46878217,
      "lng": 126.4336365
    },
    {
      "Line": "공항",
      "Name": "영종역",
      "lat": 37.51201816,
      "lng": 126.5249715
    },
    {
      "Line": "광주 1호선",
      "Name": "녹동역",
      "lat": 35.10678707,
      "lng": 126.933991
    },
    {
      "Line": "광주 1호선",
      "Name": "소태역",
      "lat": 35.12333528,
      "lng": 126.9323979
    },
    {
      "Line": "광주 1호선",
      "Name": "학동증심사입구역",
      "lat": 35.1327252,
      "lng": 126.9283963
    },
    {
      "Line": "광주 1호선",
      "Name": "남광주역",
      "lat": 35.13928379,
      "lng": 126.9229699
    },
    {
      "Line": "광주 1호선",
      "Name": "문화전당역",
      "lat": 35.14658282,
      "lng": 126.9198903
    },
    {
      "Line": "광주 1호선",
      "Name": "금남로4가역",
      "lat": 35.15070738,
      "lng": 126.9145088
    },
    {
      "Line": "광주 1호선",
      "Name": "금남로5가역",
      "lat": 35.15418285,
      "lng": 126.909303
    },
    {
      "Line": "광주 1호선",
      "Name": "양동시장역",
      "lat": 35.15432078,
      "lng": 126.9012692
    },
    {
      "Line": "광주 1호선",
      "Name": "돌고개역",
      "lat": 35.15164743,
      "lng": 126.8949291
    },
    {
      "Line": "광주 1호선",
      "Name": "농성역",
      "lat": 35.15327765,
      "lng": 126.8837108
    },
    {
      "Line": "광주 1호선",
      "Name": "화정역",
      "lat": 35.15195464,
      "lng": 126.8766011
    },
    {
      "Line": "광주 1호선",
      "Name": "쌍촌역",
      "lat": 35.15158669,
      "lng": 126.869534
    },
    {
      "Line": "광주 1호선",
      "Name": "운천역",
      "lat": 37.87996802,
      "lng": 126.769754
    },
    {
      "Line": "광주 1호선",
      "Name": "상무역",
      "lat": 35.14665886,
      "lng": 126.8485378
    },
    {
      "Line": "광주 1호선",
      "Name": "김대중컨벤션센터역",
      "lat": 35.1432428,
      "lng": 126.841565
    },
    {
      "Line": "광주 1호선",
      "Name": "공항역",
      "lat": 35.14406527,
      "lng": 126.8116275
    },
    {
      "Line": "광주 1호선",
      "Name": "송정공원역",
      "lat": 35.14354082,
      "lng": 126.7993603
    },
    {
      "Line": "광주 1호선",
      "Name": "광주송정역",
      "lat": 35.13748846,
      "lng": 126.7915187
    },
    {
      "Line": "광주 1호선",
      "Name": "도산역",
      "lat": 35.13176769,
      "lng": 126.7879784
    },
    {
      "Line": "광주 1호선",
      "Name": "평동역",
      "lat": 35.12472149,
      "lng": 126.7695654
    },
    {
      "Line": "대구 1호선",
      "Name": "각산역",
      "lat": 35.86798721,
      "lng": 128.7242405
    },
    {
      "Line": "대구 1호선",
      "Name": "교대역",
      "lat": 35.85063736,
      "lng": 128.5905762
    },
    {
      "Line": "대구 1호선",
      "Name": "대곡역",
      "lat": 35.80955835,
      "lng": 128.5127572
    },
    {
      "Line": "대구 1호선",
      "Name": "대구역",
      "lat": 35.87593813,
      "lng": 128.5962637
    },
    {
      "Line": "대구 1호선",
      "Name": "대명역",
      "lat": 35.83931822,
      "lng": 128.5659359
    },
    {
      "Line": "대구 1호선",
      "Name": "동대구역",
      "lat": 35.87755008,
      "lng": 128.6278968
    },
    {
      "Line": "대구 1호선",
      "Name": "동촌역",
      "lat": 35.88605791,
      "lng": 128.6502625
    },
    {
      "Line": "대구 1호선",
      "Name": "명덕역",
      "lat": 35.85782162,
      "lng": 128.5910961
    },
    {
      "Line": "대구 1호선",
      "Name": "반야월역",
      "lat": 35.8659589,
      "lng": 128.7135908
    },
    {
      "Line": "대구 1호선",
      "Name": "반월당역",
      "lat": 35.86449649,
      "lng": 128.5933329
    },
    {
      "Line": "대구 1호선",
      "Name": "방촌역",
      "lat": 35.87963695,
      "lng": 128.6701708
    },
    {
      "Line": "대구 1호선",
      "Name": "상인역",
      "lat": 35.81891945,
      "lng": 128.5377634
    },
    {
      "Line": "대구 1호선",
      "Name": "설화명곡역",
      "lat": 35.79871233,
      "lng": 128.4893441
    },
    {
      "Line": "대구 1호선",
      "Name": "성당못역",
      "lat": 35.83717922,
      "lng": 128.5571731
    },
    {
      "Line": "대구 1호선",
      "Name": "송현역",
      "lat": 35.83103182,
      "lng": 128.5517191
    },
    {
      "Line": "대구 1호선",
      "Name": "신기역",
      "lat": 37.34592726,
      "lng": 129.0849767
    },
    {
      "Line": "대구 1호선",
      "Name": "신천역",
      "lat": 35.87467603,
      "lng": 128.6178511
    },
    {
      "Line": "대구 1호선",
      "Name": "아양교역",
      "lat": 35.88719084,
      "lng": 128.639921
    },
    {
      "Line": "대구 1호선",
      "Name": "안심역",
      "lat": 35.87120227,
      "lng": 128.7337651
    },
    {
      "Line": "대구 1호선",
      "Name": "안지랑역",
      "lat": 35.83921644,
      "lng": 128.5737252
    },
    {
      "Line": "대구 1호선",
      "Name": "영대병원역",
      "lat": 35.8441464,
      "lng": 128.5880559
    },
    {
      "Line": "대구 1호선",
      "Name": "용계역",
      "lat": 35.87610149,
      "lng": 128.6820102
    },
    {
      "Line": "대구 1호선",
      "Name": "월배역",
      "lat": 35.81616596,
      "lng": 128.5303859
    },
    {
      "Line": "대구 1호선",
      "Name": "월촌역",
      "lat": 35.82368686,
      "lng": 128.5454682
    },
    {
      "Line": "대구 1호선",
      "Name": "율하역",
      "lat": 35.86978751,
      "lng": 128.6927044
    },
    {
      "Line": "대구 1호선",
      "Name": "중앙로역",
      "lat": 35.87085011,
      "lng": 128.5939694
    },
    {
      "Line": "대구 1호선",
      "Name": "진천역",
      "lat": 35.81387994,
      "lng": 128.5230621
    },
    {
      "Line": "대구 1호선",
      "Name": "칠성시장역",
      "lat": 35.87609037,
      "lng": 128.6051246
    },
    {
      "Line": "대구 1호선",
      "Name": "큰고개역",
      "lat": 35.88403763,
      "lng": 128.6319274
    },
    {
      "Line": "대구 1호선",
      "Name": "해안역",
      "lat": 35.88353221,
      "lng": 128.6596002
    },
    {
      "Line": "대구 1호선",
      "Name": "현충로역",
      "lat": 35.84093518,
      "lng": 128.5814621
    },
    {
      "Line": "대구 1호선",
      "Name": "화원역",
      "lat": 35.80446456,
      "lng": 128.5007131
    },
    {
      "Line": "대구 2호선",
      "Name": "감삼역",
      "lat": 35.85430996,
      "lng": 128.5481213
    },
    {
      "Line": "대구 2호선",
      "Name": "강창역",
      "lat": 35.85307809,
      "lng": 128.4785162
    },
    {
      "Line": "대구 2호선",
      "Name": "경대병원역",
      "lat": 35.86314374,
      "lng": 128.6028929
    },
    {
      "Line": "대구 2호선",
      "Name": "계명대역",
      "lat": 35.85150761,
      "lng": 128.4918363
    },
    {
      "Line": "대구 2호선",
      "Name": "고산역",
      "lat": 35.84292626,
      "lng": 128.6932401
    },
    {
      "Line": "대구 2호선",
      "Name": "내당역",
      "lat": 35.86011562,
      "lng": 128.5646401
    },
    {
      "Line": "대구 2호선",
      "Name": "다사역",
      "lat": 35.86482299,
      "lng": 128.458386
    },
    {
      "Line": "대구 2호선",
      "Name": "담티역",
      "lat": 35.85477351,
      "lng": 128.653975
    },
    {
      "Line": "대구 2호선",
      "Name": "대공원역",
      "lat": 35.84269794,
      "lng": 128.6799764
    },
    {
      "Line": "대구 2호선",
      "Name": "대구은행역",
      "lat": 35.85974933,
      "lng": 128.6141159
    },
    {
      "Line": "대구 2호선",
      "Name": "대실역",
      "lat": 35.85760226,
      "lng": 128.4652499
    },
    {
      "Line": "대구 2호선",
      "Name": "두류역",
      "lat": 35.85720409,
      "lng": 128.5556828
    },
    {
      "Line": "대구 2호선",
      "Name": "만촌역",
      "lat": 35.85884731,
      "lng": 128.6447389
    },
    {
      "Line": "대구 2호선",
      "Name": "문양역",
      "lat": 35.86414371,
      "lng": 128.4369847
    },
    {
      "Line": "대구 2호선",
      "Name": "반고개역",
      "lat": 35.86224495,
      "lng": 128.5727191
    },
    {
      "Line": "대구 2호선",
      "Name": "반월당역",
      "lat": 35.86449649,
      "lng": 128.5933329
    },
    {
      "Line": "대구 2호선",
      "Name": "범어역",
      "lat": 35.85901968,
      "lng": 128.6267872
    },
    {
      "Line": "대구 2호선",
      "Name": "사월역",
      "lat": 35.83702642,
      "lng": 128.7152922
    },
    {
      "Line": "대구 2호선",
      "Name": "성서산업단지역",
      "lat": 35.85171507,
      "lng": 128.5069827
    },
    {
      "Line": "대구 2호선",
      "Name": "수성구청역",
      "lat": 35.85879135,
      "lng": 128.6356384
    },
    {
      "Line": "대구 2호선",
      "Name": "신남역",
      "lat": 35.86419088,
      "lng": 128.5823669
    },
    {
      "Line": "대구 2호선",
      "Name": "신매역",
      "lat": 35.84079369,
      "lng": 128.7051252
    },
    {
      "Line": "대구 2호선",
      "Name": "연호역",
      "lat": 35.84658057,
      "lng": 128.6716687
    },
    {
      "Line": "대구 2호선",
      "Name": "영남대역",
      "lat": 35.83619751,
      "lng": 128.7527455
    },
    {
      "Line": "대구 2호선",
      "Name": "용산역",
      "lat": 35.84906031,
      "lng": 128.5288041
    },
    {
      "Line": "대구 2호선",
      "Name": "이곡역",
      "lat": 35.85059492,
      "lng": 128.5157944
    },
    {
      "Line": "대구 2호선",
      "Name": "임당역",
      "lat": 35.83411783,
      "lng": 128.7408368
    },
    {
      "Line": "대구 2호선",
      "Name": "정평역",
      "lat": 35.8340413,
      "lng": 128.7286623
    },
    {
      "Line": "대구 2호선",
      "Name": "죽전역",
      "lat": 35.850717,
      "lng": 128.5387979
    },
    {
      "Line": "대구 3호선",
      "Name": "건들바위역",
      "lat": 35.85538264,
      "lng": 128.5996815
    },
    {
      "Line": "대구 3호선",
      "Name": "공단역",
      "lat": 35.89197939,
      "lng": 128.5535944
    },
    {
      "Line": "대구 3호선",
      "Name": "구암역",
      "lat": 35.92574234,
      "lng": 128.5503326
    },
    {
      "Line": "대구 3호선",
      "Name": "남산역",
      "lat": 35.85669699,
      "lng": 128.5834577
    },
    {
      "Line": "대구 3호선",
      "Name": "달성공원역",
      "lat": 35.87567517,
      "lng": 128.582086
    },
    {
      "Line": "대구 3호선",
      "Name": "대봉교역",
      "lat": 35.85498714,
      "lng": 128.6063594
    },
    {
      "Line": "대구 3호선",
      "Name": "동천역",
      "lat": 35.93769938,
      "lng": 128.5566828
    },
    {
      "Line": "대구 3호선",
      "Name": "만평역",
      "lat": 35.88982823,
      "lng": 128.5610385
    },
    {
      "Line": "대구 3호선",
      "Name": "매천역",
      "lat": 35.91267488,
      "lng": 128.5434089
    },
    {
      "Line": "대구 3호선",
      "Name": "매천시장역",
      "lat": 35.90435451,
      "lng": 128.5457284
    },
    {
      "Line": "대구 3호선",
      "Name": "명덕역",
      "lat": 35.85782162,
      "lng": 128.5910961
    },
    {
      "Line": "대구 3호선",
      "Name": "범물역",
      "lat": 35.82082848,
      "lng": 128.6401036
    },
    {
      "Line": "대구 3호선",
      "Name": "북구청역",
      "lat": 35.88374007,
      "lng": 128.5814269
    },
    {
      "Line": "대구 3호선",
      "Name": "서문시장역",
      "lat": 35.8696536,
      "lng": 128.5822319
    },
    {
      "Line": "대구 3호선",
      "Name": "수성구민운동장역",
      "lat": 35.85240979,
      "lng": 128.6251246
    },
    {
      "Line": "대구 3호선",
      "Name": "수성못역",
      "lat": 35.83134891,
      "lng": 128.6232121
    },
    {
      "Line": "대구 3호선",
      "Name": "수성시장역",
      "lat": 35.85431688,
      "lng": 128.6160204
    },
    {
      "Line": "대구 3호선",
      "Name": "신남역",
      "lat": 35.86419088,
      "lng": 128.5823669
    },
    {
      "Line": "대구 3호선",
      "Name": "어린이회관역",
      "lat": 35.84515548,
      "lng": 128.6244674
    },
    {
      "Line": "대구 3호선",
      "Name": "용지역",
      "lat": 35.81825339,
      "lng": 128.6465342
    },
    {
      "Line": "대구 3호선",
      "Name": "원대역",
      "lat": 35.88783407,
      "lng": 128.5743546
    },
    {
      "Line": "대구 3호선",
      "Name": "지산역",
      "lat": 35.82513898,
      "lng": 128.6319377
    },
    {
      "Line": "대구 3호선",
      "Name": "칠곡경대병원역",
      "lat": 35.95838399,
      "lng": 128.5598818
    },
    {
      "Line": "대구 3호선",
      "Name": "칠곡운암역",
      "lat": 35.93145546,
      "lng": 128.5545216
    },
    {
      "Line": "대구 3호선",
      "Name": "태전역",
      "lat": 35.91963411,
      "lng": 128.5474216
    },
    {
      "Line": "대구 3호선",
      "Name": "팔거역",
      "lat": 35.94403995,
      "lng": 128.5583365
    },
    {
      "Line": "대구 3호선",
      "Name": "팔달역",
      "lat": 35.89783532,
      "lng": 128.5467313
    },
    {
      "Line": "대구 3호선",
      "Name": "팔달시장역",
      "lat": 35.88883818,
      "lng": 128.5678629
    },
    {
      "Line": "대구 3호선",
      "Name": "학정역",
      "lat": 35.95154431,
      "lng": 128.5591932
    },
    {
      "Line": "대구 3호선",
      "Name": "황금역",
      "lat": 35.83907142,
      "lng": 128.6239007
    },
    {
      "Line": "대전 1호선",
      "Name": "판암역",
      "lat": 36.31695386,
      "lng": 127.4584095
    },
    {
      "Line": "대전 1호선",
      "Name": "신흥역",
      "lat": 36.31963986,
      "lng": 127.4487815
    },
    {
      "Line": "대전 1호선",
      "Name": "대동역",
      "lat": 36.32957502,
      "lng": 127.4428243
    },
    {
      "Line": "대전 1호선",
      "Name": "대전역",
      "lat": 36.3322925,
      "lng": 127.4341077
    },
    {
      "Line": "대전 1호선",
      "Name": "중앙로역",
      "lat": 36.3286455,
      "lng": 127.4258236
    },
    {
      "Line": "대전 1호선",
      "Name": "중구청역",
      "lat": 36.32479265,
      "lng": 127.4195438
    },
    {
      "Line": "대전 1호선",
      "Name": "서대전네거리역",
      "lat": 36.32241982,
      "lng": 127.4125597
    },
    {
      "Line": "대전 1호선",
      "Name": "오룡역",
      "lat": 36.32868214,
      "lng": 127.404908
    },
    {
      "Line": "대전 1호선",
      "Name": "용문역",
      "lat": 36.33777053,
      "lng": 127.3927472
    },
    {
      "Line": "대전 1호선",
      "Name": "탄방역",
      "lat": 36.34554726,
      "lng": 127.3845652
    },
    {
      "Line": "대전 1호선",
      "Name": "시청역",
      "lat": 36.35150604,
      "lng": 127.3867335
    },
    {
      "Line": "대전 1호선",
      "Name": "정부청사역",
      "lat": 37.42649391,
      "lng": 126.9898545
    },
    {
      "Line": "대전 1호선",
      "Name": "갈마역",
      "lat": 36.35757019,
      "lng": 127.3727922
    },
    {
      "Line": "대전 1호선",
      "Name": "월평역",
      "lat": 36.35824433,
      "lng": 127.3645953
    },
    {
      "Line": "대전 1호선",
      "Name": "갑천역",
      "lat": 36.35474155,
      "lng": 127.3546858
    },
    {
      "Line": "대전 1호선",
      "Name": "유성온천역",
      "lat": 36.35371679,
      "lng": 127.3414235
    },
    {
      "Line": "대전 1호선",
      "Name": "구암역",
      "lat": 36.35668473,
      "lng": 127.3307186
    },
    {
      "Line": "대전 1호선",
      "Name": "현충원역",
      "lat": 36.35907018,
      "lng": 127.3217931
    },
    {
      "Line": "대전 1호선",
      "Name": "월드컵경기장역",
      "lat": 36.3668489,
      "lng": 127.317836
    },
    {
      "Line": "대전 1호선",
      "Name": "노은역",
      "lat": 36.37413031,
      "lng": 127.3178656
    },
    {
      "Line": "대전 1호선",
      "Name": "지족역",
      "lat": 36.38409294,
      "lng": 127.3194888
    },
    {
      "Line": "대전 1호선",
      "Name": "반석역",
      "lat": 36.39225275,
      "lng": 127.3145063
    },
    {
      "Line": "부산 1호선",
      "Name": "괴정역",
      "lat": 35.0999289,
      "lng": 128.9924695
    },
    {
      "Line": "부산 1호선",
      "Name": "교대역",
      "lat": 35.19578391,
      "lng": 129.079977
    },
    {
      "Line": "부산 1호선",
      "Name": "구서역",
      "lat": 35.24727886,
      "lng": 129.0912882
    },
    {
      "Line": "부산 1호선",
      "Name": "남산역",
      "lat": 35.26519224,
      "lng": 129.0924079
    },
    {
      "Line": "부산 1호선",
      "Name": "남포역",
      "lat": 35.09789314,
      "lng": 129.0347233
    },
    {
      "Line": "부산 1호선",
      "Name": "낫개역",
      "lat": 35.06533499,
      "lng": 128.979659
    },
    {
      "Line": "부산 1호선",
      "Name": "노포역",
      "lat": 35.28383668,
      "lng": 129.0950197
    },
    {
      "Line": "부산 1호선",
      "Name": "다대포항역",
      "lat": 35.0576669,
      "lng": 128.9712978
    },
    {
      "Line": "부산 1호선",
      "Name": "다대포해수욕장역",
      "lat": 35.04814999,
      "lng": 128.9657651
    },
    {
      "Line": "부산 1호선",
      "Name": "당리역",
      "lat": 35.10355244,
      "lng": 128.9736963
    },
    {
      "Line": "부산 1호선",
      "Name": "대티역",
      "lat": 35.10315826,
      "lng": 128.9999391
    },
    {
      "Line": "부산 1호선",
      "Name": "동대신역",
      "lat": 35.11032516,
      "lng": 129.0177269
    },
    {
      "Line": "부산 1호선",
      "Name": "동래역",
      "lat": 35.20561432,
      "lng": 129.078471
    },
    {
      "Line": "부산 1호선",
      "Name": "동매역",
      "lat": 35.08974919,
      "lng": 128.9735171
    },
    {
      "Line": "부산 1호선",
      "Name": "두실역",
      "lat": 35.25700993,
      "lng": 129.0913625
    },
    {
      "Line": "부산 1호선",
      "Name": "명륜역",
      "lat": 35.21256808,
      "lng": 129.0797025
    },
    {
      "Line": "부산 1호선",
      "Name": "범내골역",
      "lat": 35.14731367,
      "lng": 129.0592349
    },
    {
      "Line": "부산 1호선",
      "Name": "범어사역",
      "lat": 35.27306434,
      "lng": 129.0926323
    },
    {
      "Line": "부산 1호선",
      "Name": "범일역",
      "lat": 35.14078756,
      "lng": 129.0593338
    },
    {
      "Line": "부산 1호선",
      "Name": "부산역",
      "lat": 35.11510135,
      "lng": 129.0414025
    },
    {
      "Line": "부산 1호선",
      "Name": "부산대역",
      "lat": 35.22964889,
      "lng": 129.0894078
    },
    {
      "Line": "부산 1호선",
      "Name": "부산진역",
      "lat": 35.1287873,
      "lng": 129.0495761
    },
    {
      "Line": "부산 1호선",
      "Name": "부전역",
      "lat": 35.16463714,
      "lng": 129.0601107
    },
    {
      "Line": "부산 1호선",
      "Name": "사하역",
      "lat": 35.09975347,
      "lng": 128.9833859
    },
    {
      "Line": "부산 1호선",
      "Name": "서대신역",
      "lat": 35.11090492,
      "lng": 129.0121261
    },
    {
      "Line": "부산 1호선",
      "Name": "서면역",
      "lat": 35.15792855,
      "lng": 129.0592831
    },
    {
      "Line": "부산 1호선",
      "Name": "시청역",
      "lat": 35.17967587,
      "lng": 129.076559
    },
    {
      "Line": "부산 1호선",
      "Name": "신장림역",
      "lat": 35.07473963,
      "lng": 128.9765757
    },
    {
      "Line": "부산 1호선",
      "Name": "신평역",
      "lat": 35.09522174,
      "lng": 128.9606008
    },
    {
      "Line": "부산 1호선",
      "Name": "양정역",
      "lat": 35.17279452,
      "lng": 129.071094
    },
    {
      "Line": "부산 1호선",
      "Name": "연산역",
      "lat": 35.18602365,
      "lng": 129.0815942
    },
    {
      "Line": "부산 1호선",
      "Name": "온천장역",
      "lat": 35.22025638,
      "lng": 129.0864216
    },
    {
      "Line": "부산 1호선",
      "Name": "자갈치역",
      "lat": 35.09719108,
      "lng": 129.0260654
    },
    {
      "Line": "부산 1호선",
      "Name": "장림역",
      "lat": 35.08195467,
      "lng": 128.9773418
    },
    {
      "Line": "부산 1호선",
      "Name": "장전역",
      "lat": 35.23806964,
      "lng": 129.08813
    },
    {
      "Line": "부산 1호선",
      "Name": "좌천역",
      "lat": 35.31129934,
      "lng": 129.2438542
    },
    {
      "Line": "부산 1호선",
      "Name": "중앙역",
      "lat": 35.10372329,
      "lng": 129.0363595
    },
    {
      "Line": "부산 1호선",
      "Name": "초량역",
      "lat": 35.12052329,
      "lng": 129.0426566
    },
    {
      "Line": "부산 1호선",
      "Name": "토성역",
      "lat": 35.10077466,
      "lng": 129.0197722
    },
    {
      "Line": "부산 1호선",
      "Name": "하단역",
      "lat": 35.10622415,
      "lng": 128.9667862
    },
    {
      "Line": "부산 2호선",
      "Name": "가야역",
      "lat": 35.15592834,
      "lng": 129.0433001
    },
    {
      "Line": "부산 2호선",
      "Name": "감전역",
      "lat": 35.15533177,
      "lng": 128.9914717
    },
    {
      "Line": "부산 2호선",
      "Name": "개금역",
      "lat": 35.1532278,
      "lng": 129.0205635
    },
    {
      "Line": "부산 2호선",
      "Name": "경성대.부경대역",
      "lat": 35.13759348,
      "lng": 129.1005015
    },
    {
      "Line": "부산 2호선",
      "Name": "광안역",
      "lat": 35.15784793,
      "lng": 129.1131364
    },
    {
      "Line": "부산 2호선",
      "Name": "구남역",
      "lat": 35.19667598,
      "lng": 128.994852
    },
    {
      "Line": "부산 2호선",
      "Name": "구명역",
      "lat": 35.20279855,
      "lng": 128.9995471
    },
    {
      "Line": "부산 2호선",
      "Name": "금곡역",
      "lat": 35.26723367,
      "lng": 129.0167984
    },
    {
      "Line": "부산 2호선",
      "Name": "금련산역",
      "lat": 35.14973961,
      "lng": 129.1109517
    },
    {
      "Line": "부산 2호선",
      "Name": "남양산역",
      "lat": 35.32544055,
      "lng": 129.0194091
    },
    {
      "Line": "부산 2호선",
      "Name": "남천역",
      "lat": 35.14200794,
      "lng": 129.1078338
    },
    {
      "Line": "부산 2호선",
      "Name": "냉정역",
      "lat": 35.15124178,
      "lng": 129.0121096
    },
    {
      "Line": "부산 2호선",
      "Name": "대연역",
      "lat": 35.1351255,
      "lng": 129.092101
    },
    {
      "Line": "부산 2호선",
      "Name": "덕천역",
      "lat": 35.21041971,
      "lng": 129.0051583
    },
    {
      "Line": "부산 2호선",
      "Name": "덕포역",
      "lat": 35.17331916,
      "lng": 128.9837887
    },
    {
      "Line": "부산 2호선",
      "Name": "동백역",
      "lat": 35.16132594,
      "lng": 129.1479899
    },
    {
      "Line": "부산 2호선",
      "Name": "동원역",
      "lat": 35.25863763,
      "lng": 129.0124104
    },
    {
      "Line": "부산 2호선",
      "Name": "동의대역",
      "lat": 35.15405393,
      "lng": 129.0325879
    },
    {
      "Line": "부산 2호선",
      "Name": "모덕역",
      "lat": 35.18040898,
      "lng": 128.9855855
    },
    {
      "Line": "부산 2호선",
      "Name": "모라역",
      "lat": 35.18953422,
      "lng": 128.9885519
    },
    {
      "Line": "부산 2호선",
      "Name": "못골역",
      "lat": 35.13471811,
      "lng": 129.0843678
    },
    {
      "Line": "부산 2호선",
      "Name": "문현역",
      "lat": 35.13902831,
      "lng": 129.0673857
    },
    {
      "Line": "부산 2호선",
      "Name": "민락역",
      "lat": 35.16706335,
      "lng": 129.1220883
    },
    {
      "Line": "부산 2호선",
      "Name": "벡스코역",
      "lat": 35.17123993,
      "lng": 129.1367054
    },
    {
      "Line": "부산 2호선",
      "Name": "부산대양산캠퍼스역",
      "lat": 35.31680797,
      "lng": 129.0139829
    },
    {
      "Line": "부산 2호선",
      "Name": "부암역",
      "lat": 35.15736239,
      "lng": 129.0501612
    },
    {
      "Line": "부산 2호선",
      "Name": "사상역",
      "lat": 35.16256857,
      "lng": 128.9887072
    },
    {
      "Line": "부산 2호선",
      "Name": "서면역",
      "lat": 35.15792855,
      "lng": 129.0592831
    },
    {
      "Line": "부산 2호선",
      "Name": "센텀시티(BEXCO·신세계)",
      "lat": 35.16890662,
      "lng": 129.1316601
    },
    {
      "Line": "부산 2호선",
      "Name": "수영역",
      "lat": 35.16567676,
      "lng": 129.1148095
    },
    {
      "Line": "부산 2호선",
      "Name": "수정역",
      "lat": 35.22316896,
      "lng": 129.009096
    },
    {
      "Line": "부산 2호선",
      "Name": "양산역",
      "lat": 35.33873215,
      "lng": 129.0264263
    },
    {
      "Line": "부산 2호선",
      "Name": "율리역",
      "lat": 35.24624837,
      "lng": 129.0128511
    },
    {
      "Line": "부산 2호선",
      "Name": "장산역",
      "lat": 35.16994518,
      "lng": 129.1770135
    },
    {
      "Line": "부산 2호선",
      "Name": "전포역",
      "lat": 35.15308476,
      "lng": 129.0653713
    },
    {
      "Line": "부산 2호선",
      "Name": "주례역",
      "lat": 35.15047566,
      "lng": 129.0028741
    },
    {
      "Line": "부산 2호선",
      "Name": "중동역",
      "lat": 35.16666894,
      "lng": 129.1687615
    },
    {
      "Line": "부산 2호선",
      "Name": "증산역",
      "lat": 35.30825469,
      "lng": 129.0102749
    },
    {
      "Line": "부산 2호선",
      "Name": "지게골역",
      "lat": 35.13555596,
      "lng": 129.0744064
    },
    {
      "Line": "부산 2호선",
      "Name": "해운대역",
      "lat": 35.16363723,
      "lng": 129.1588926
    },
    {
      "Line": "부산 2호선",
      "Name": "호포역",
      "lat": 35.28082925,
      "lng": 129.0175092
    },
    {
      "Line": "부산 2호선",
      "Name": "화명역",
      "lat": 35.23451172,
      "lng": 129.0076404
    },
    {
      "Line": "부산 2호선",
      "Name": "국제금융센터.부산은행역",
      "lat": 35.14590643,
      "lng": 129.0667259
    },
    {
      "Line": "부산 3호선",
      "Name": "강서구청역",
      "lat": 35.21117988,
      "lng": 128.9819865
    },
    {
      "Line": "부산 3호선",
      "Name": "거제역",
      "lat": 35.18849557,
      "lng": 129.0740831
    },
    {
      "Line": "부산 3호선",
      "Name": "구포역",
      "lat": 35.20547021,
      "lng": 128.9971093
    },
    {
      "Line": "부산 3호선",
      "Name": "남산정역",
      "lat": 35.21331852,
      "lng": 129.0237429
    },
    {
      "Line": "부산 3호선",
      "Name": "대저역",
      "lat": 35.21304187,
      "lng": 128.9606194
    },
    {
      "Line": "부산 3호선",
      "Name": "덕천역",
      "lat": 35.21041971,
      "lng": 129.0051583
    },
    {
      "Line": "부산 3호선",
      "Name": "만덕역",
      "lat": 35.21300017,
      "lng": 129.0362748
    },
    {
      "Line": "부산 3호선",
      "Name": "망미역",
      "lat": 35.17148538,
      "lng": 129.1083092
    },
    {
      "Line": "부산 3호선",
      "Name": "물만골역",
      "lat": 35.17679717,
      "lng": 129.0857052
    },
    {
      "Line": "부산 3호선",
      "Name": "미남역",
      "lat": 35.20684043,
      "lng": 129.068972
    },
    {
      "Line": "부산 3호선",
      "Name": "배산역",
      "lat": 35.17349092,
      "lng": 129.0955641
    },
    {
      "Line": "부산 3호선",
      "Name": "사직역",
      "lat": 35.1986145,
      "lng": 129.0651843
    },
    {
      "Line": "부산 3호선",
      "Name": "수영역",
      "lat": 35.16567676,
      "lng": 129.1148095
    },
    {
      "Line": "부산 3호선",
      "Name": "숙등역",
      "lat": 35.21207064,
      "lng": 129.0131927
    },
    {
      "Line": "부산 3호선",
      "Name": "연산역",
      "lat": 35.18602365,
      "lng": 129.0815942
    },
    {
      "Line": "부산 3호선",
      "Name": "종합운동장역",
      "lat": 35.19154731,
      "lng": 129.0674205
    },
    {
      "Line": "부산 3호선",
      "Name": "체육공원역",
      "lat": 35.21246655,
      "lng": 128.969412
    },
    {
      "Line": "부산 4호선",
      "Name": "고촌역",
      "lat": 35.23600666,
      "lng": 129.1604578
    },
    {
      "Line": "부산 4호선",
      "Name": "금사역",
      "lat": 35.21577511,
      "lng": 129.1151203
    },
    {
      "Line": "부산 4호선",
      "Name": "낙민역",
      "lat": 35.20021201,
      "lng": 129.0907612
    },
    {
      "Line": "부산 4호선",
      "Name": "동래역",
      "lat": 35.20561432,
      "lng": 129.078471
    },
    {
      "Line": "부산 4호선",
      "Name": "동부산대학역",
      "lat": 35.20472033,
      "lng": 129.0772907
    },
    {
      "Line": "부산 4호선",
      "Name": "명장역",
      "lat": 35.20540842,
      "lng": 129.1018738
    },
    {
      "Line": "부산 4호선",
      "Name": "미남역",
      "lat": 35.20684043,
      "lng": 129.068972
    },
    {
      "Line": "부산 4호선",
      "Name": "반여농산물시장역",
      "lat": 35.21774666,
      "lng": 129.1239782
    },
    {
      "Line": "부산 4호선",
      "Name": "서동역",
      "lat": 35.21316823,
      "lng": 129.1075202
    },
    {
      "Line": "부산 4호선",
      "Name": "석대역",
      "lat": 35.21812998,
      "lng": 129.1370117
    },
    {
      "Line": "부산 4호선",
      "Name": "수안역",
      "lat": 35.20173717,
      "lng": 129.0838397
    },
    {
      "Line": "부산 4호선",
      "Name": "안평역",
      "lat": 35.333944,
      "lng": 126.7802582
    },
    {
      "Line": "부산 4호선",
      "Name": "영산대역",
      "lat": 35.22559271,
      "lng": 129.1461028
    },
    {
      "Line": "부산 4호선",
      "Name": "충렬사역",
      "lat": 35.20003683,
      "lng": 129.0977611
    },
    {
      "Line": "서울 1호선",
      "Name": "남영역",
      "lat": 37.54055856,
      "lng": 126.9713276
    },
    {
      "Line": "서울 1호선",
      "Name": "용산역",
      "lat": 37.53006915,
      "lng": 126.964815
    },
    {
      "Line": "서울 1호선",
      "Name": "노량진역",
      "lat": 37.51357125,
      "lng": 126.9408887
    },
    {
      "Line": "서울 1호선",
      "Name": "대방역",
      "lat": 37.51334692,
      "lng": 126.9264787
    },
    {
      "Line": "서울 1호선",
      "Name": "영등포역",
      "lat": 37.51567647,
      "lng": 126.9078579
    },
    {
      "Line": "서울 1호선",
      "Name": "신도림역",
      "lat": 37.50890487,
      "lng": 126.891308
    },
    {
      "Line": "서울 1호선",
      "Name": "회기역",
      "lat": 37.5897782,
      "lng": 127.0580393
    },
    {
      "Line": "서울 1호선",
      "Name": "외대앞역",
      "lat": 37.59626243,
      "lng": 127.0636834
    },
    {
      "Line": "서울 1호선",
      "Name": "신이문역",
      "lat": 37.60177445,
      "lng": 127.0673799
    },
    {
      "Line": "서울 1호선",
      "Name": "광운대역",
      "lat": 37.62383376,
      "lng": 127.0616906
    },
    {
      "Line": "서울 1호선",
      "Name": "월계역",
      "lat": 37.63325953,
      "lng": 127.0588435
    },
    {
      "Line": "서울 1호선",
      "Name": "녹천역",
      "lat": 37.64463345,
      "lng": 127.0513741
    },
    {
      "Line": "서울 1호선",
      "Name": "창동역",
      "lat": 37.65332049,
      "lng": 127.0476405
    },
    {
      "Line": "서울 1호선",
      "Name": "신길역",
      "lat": 37.51678342,
      "lng": 126.9183536
    },
    {
      "Line": "서울 1호선",
      "Name": "석계역",
      "lat": 37.61500193,
      "lng": 127.0656702
    },
    {
      "Line": "서울 1호선",
      "Name": "봉명역",
      "lat": 36.80141984,
      "lng": 127.1360336
    },
    {
      "Line": "서울 1호선",
      "Name": "쌍용역",
      "lat": 36.79372219,
      "lng": 127.1213648
    },
    {
      "Line": "서울 1호선",
      "Name": "아산역",
      "lat": 36.79460339,
      "lng": 127.1043579
    },
    {
      "Line": "서울 1호선",
      "Name": "배방역",
      "lat": 36.7776965,
      "lng": 127.0527836
    },
    {
      "Line": "서울 1호선",
      "Name": "온양온천역",
      "lat": 36.78053767,
      "lng": 127.0031815
    },
    {
      "Line": "서울 1호선",
      "Name": "신창역",
      "lat": 36.76962428,
      "lng": 126.9513886
    },
    {
      "Line": "서울 1호선",
      "Name": "구로역",
      "lat": 37.50332802,
      "lng": 126.8822911
    },
    {
      "Line": "서울 1호선",
      "Name": "가산디지털단지역",
      "lat": 37.48038874,
      "lng": 126.8826437
    },
    {
      "Line": "서울 1호선",
      "Name": "금천구청역",
      "lat": 37.45617995,
      "lng": 126.8935996
    },
    {
      "Line": "서울 1호선",
      "Name": "석수역",
      "lat": 37.43508572,
      "lng": 126.9023072
    },
    {
      "Line": "서울 1호선",
      "Name": "관악역",
      "lat": 37.41955714,
      "lng": 126.9084955
    },
    {
      "Line": "서울 1호선",
      "Name": "안양역",
      "lat": 37.40185319,
      "lng": 126.9226348
    },
    {
      "Line": "서울 1호선",
      "Name": "명학역",
      "lat": 37.38445321,
      "lng": 126.9355928
    },
    {
      "Line": "서울 1호선",
      "Name": "금정역",
      "lat": 37.37245559,
      "lng": 126.9434607
    },
    {
      "Line": "서울 1호선",
      "Name": "의왕역",
      "lat": 37.32034211,
      "lng": 126.9479675
    },
    {
      "Line": "서울 1호선",
      "Name": "성균관대역",
      "lat": 37.300329,
      "lng": 126.971013
    },
    {
      "Line": "서울 1호선",
      "Name": "화서역",
      "lat": 37.28398727,
      "lng": 126.989603
    },
    {
      "Line": "서울 1호선",
      "Name": "수원역",
      "lat": 37.2657867,
      "lng": 127.0000902
    },
    {
      "Line": "서울 1호선",
      "Name": "독산역",
      "lat": 37.46596115,
      "lng": 126.8894711
    },
    {
      "Line": "서울 1호선",
      "Name": "세류역",
      "lat": 37.24387252,
      "lng": 127.0137952
    },
    {
      "Line": "서울 1호선",
      "Name": "군포역",
      "lat": 37.35418507,
      "lng": 126.9485085
    },
    {
      "Line": "서울 1호선",
      "Name": "병점역",
      "lat": 37.20674549,
      "lng": 127.0331869
    },
    {
      "Line": "서울 1호선",
      "Name": "세마역",
      "lat": 37.18711726,
      "lng": 127.0434268
    },
    {
      "Line": "서울 1호선",
      "Name": "오산대역",
      "lat": 37.16933963,
      "lng": 127.0630757
    },
    {
      "Line": "서울 1호선",
      "Name": "송탄역",
      "lat": 37.07570545,
      "lng": 127.0542715
    },
    {
      "Line": "서울 1호선",
      "Name": "서정리역",
      "lat": 37.05654929,
      "lng": 127.0528637
    },
    {
      "Line": "서울 1호선",
      "Name": "평택역",
      "lat": 36.99096795,
      "lng": 127.0852821
    },
    {
      "Line": "서울 1호선",
      "Name": "성환역",
      "lat": 36.91612238,
      "lng": 127.1268778
    },
    {
      "Line": "서울 1호선",
      "Name": "직산역",
      "lat": 36.87092205,
      "lng": 127.1438058
    },
    {
      "Line": "서울 1호선",
      "Name": "두정역",
      "lat": 36.83359183,
      "lng": 127.1490719
    },
    {
      "Line": "서울 1호선",
      "Name": "천안역",
      "lat": 36.80899436,
      "lng": 127.1468277
    },
    {
      "Line": "서울 1호선",
      "Name": "당정역",
      "lat": 37.343679,
      "lng": 126.9483577
    },
    {
      "Line": "서울 1호선",
      "Name": "서동탄역",
      "lat": 37.19572794,
      "lng": 127.0518568
    },
    {
      "Line": "서울 1호선",
      "Name": "광명역",
      "lat": 37.41643692,
      "lng": 126.8847995
    },
    {
      "Line": "서울 1호선",
      "Name": "개봉역",
      "lat": 37.49463448,
      "lng": 126.8586934
    },
    {
      "Line": "서울 1호선",
      "Name": "오류동역",
      "lat": 37.49438279,
      "lng": 126.8448075
    },
    {
      "Line": "서울 1호선",
      "Name": "역곡역",
      "lat": 37.48530715,
      "lng": 126.8120593
    },
    {
      "Line": "서울 1호선",
      "Name": "부천역",
      "lat": 37.48397806,
      "lng": 126.7830727
    },
    {
      "Line": "서울 1호선",
      "Name": "송내역",
      "lat": 37.4876132,
      "lng": 126.7530306
    },
    {
      "Line": "서울 1호선",
      "Name": "부평역",
      "lat": 37.48944182,
      "lng": 126.7243266
    },
    {
      "Line": "서울 1호선",
      "Name": "백운역",
      "lat": 37.48332803,
      "lng": 126.7072764
    },
    {
      "Line": "서울 1호선",
      "Name": "주안역",
      "lat": 37.46503882,
      "lng": 126.6799476
    },
    {
      "Line": "서울 1호선",
      "Name": "제물포역",
      "lat": 37.46672224,
      "lng": 126.6569483
    },
    {
      "Line": "서울 1호선",
      "Name": "동인천역",
      "lat": 37.47540683,
      "lng": 126.6326025
    },
    {
      "Line": "서울 1호선",
      "Name": "인천역",
      "lat": 37.47614957,
      "lng": 126.6168166
    },
    {
      "Line": "서울 1호선",
      "Name": "구일역",
      "lat": 37.4962509,
      "lng": 126.8696821
    },
    {
      "Line": "서울 1호선",
      "Name": "오산역",
      "lat": 37.14470276,
      "lng": 127.0666121
    },
    {
      "Line": "서울 1호선",
      "Name": "진위역",
      "lat": 37.11006822,
      "lng": 127.0623515
    },
    {
      "Line": "서울 1호선",
      "Name": "동암역",
      "lat": 37.47068493,
      "lng": 126.7028717
    },
    {
      "Line": "서울 1호선",
      "Name": "소사역",
      "lat": 37.48279309,
      "lng": 126.7956262
    },
    {
      "Line": "서울 1호선",
      "Name": "부개역",
      "lat": 37.48846983,
      "lng": 126.7407256
    },
    {
      "Line": "서울 1호선",
      "Name": "간석역",
      "lat": 37.46469636,
      "lng": 126.6935134
    },
    {
      "Line": "서울 1호선",
      "Name": "도원역",
      "lat": 37.46876979,
      "lng": 126.6425148
    },
    {
      "Line": "서울 1호선",
      "Name": "온수역",
      "lat": 37.49195669,
      "lng": 126.8238253
    },
    {
      "Line": "서울 1호선",
      "Name": "중동역",
      "lat": 37.48666358,
      "lng": 126.7645216
    },
    {
      "Line": "서울 1호선",
      "Name": "도화역",
      "lat": 37.46610669,
      "lng": 126.6685715
    },
    {
      "Line": "서울 1호선",
      "Name": "방학역",
      "lat": 37.66743116,
      "lng": 127.0443172
    },
    {
      "Line": "서울 1호선",
      "Name": "도봉역",
      "lat": 37.67919749,
      "lng": 127.0455258
    },
    {
      "Line": "서울 1호선",
      "Name": "도봉산역",
      "lat": 37.68955853,
      "lng": 127.0460537
    },
    {
      "Line": "서울 1호선",
      "Name": "망월사역",
      "lat": 37.71020835,
      "lng": 127.0474047
    },
    {
      "Line": "서울 1호선",
      "Name": "회룡역",
      "lat": 37.72379508,
      "lng": 127.0472772
    },
    {
      "Line": "서울 1호선",
      "Name": "의정부역",
      "lat": 37.73835529,
      "lng": 127.0459477
    },
    {
      "Line": "서울 1호선",
      "Name": "가능역",
      "lat": 37.74839272,
      "lng": 127.0442746
    },
    {
      "Line": "서울 1호선",
      "Name": "녹양역",
      "lat": 37.75938526,
      "lng": 127.0422612
    },
    {
      "Line": "서울 1호선",
      "Name": "양주역",
      "lat": 37.77412414,
      "lng": 127.0447213
    },
    {
      "Line": "서울 1호선",
      "Name": "덕계역",
      "lat": 37.81875259,
      "lng": 127.0566735
    },
    {
      "Line": "서울 1호선",
      "Name": "덕정역",
      "lat": 37.84318405,
      "lng": 127.0615548
    },
    {
      "Line": "서울 1호선",
      "Name": "지행역",
      "lat": 37.89187431,
      "lng": 127.0556609
    },
    {
      "Line": "서울 1호선",
      "Name": "동두천중앙역",
      "lat": 37.90176632,
      "lng": 127.0564187
    },
    {
      "Line": "서울 1호선",
      "Name": "보산역",
      "lat": 37.91414493,
      "lng": 127.057156
    },
    {
      "Line": "서울 1호선",
      "Name": "동두천역",
      "lat": 37.92760607,
      "lng": 127.0549143
    },
    {
      "Line": "서울 1호선",
      "Name": "종로3가역",
      "lat": 37.57042084,
      "lng": 126.9921442
    },
    {
      "Line": "서울 1호선",
      "Name": "종로5가역",
      "lat": 37.57096169,
      "lng": 127.0015395
    },
    {
      "Line": "서울 1호선",
      "Name": "동대문역",
      "lat": 37.571664,
      "lng": 127.010618
    },
    {
      "Line": "서울 1호선",
      "Name": "신설동역",
      "lat": 37.57602276,
      "lng": 127.0244522
    },
    {
      "Line": "서울 1호선",
      "Name": "제기동역",
      "lat": 37.57816449,
      "lng": 127.0349359
    },
    {
      "Line": "서울 1호선",
      "Name": "청량리역",
      "lat": 37.58071852,
      "lng": 127.0484998
    },
    {
      "Line": "서울 1호선",
      "Name": "동묘앞역",
      "lat": 37.57321306,
      "lng": 127.0163461
    },
    {
      "Line": "서울 1호선",
      "Name": "소요산역",
      "lat": 37.94888318,
      "lng": 127.0611195
    },
    {
      "Line": "서울 1호선",
      "Name": "지제역",
      "lat": 37.01876739,
      "lng": 127.0698282
    },
    {
      "Line": "서울 1호선",
      "Name": "서울역",
      "lat": 37.55331631,
      "lng": 126.9697383
    },
    {
      "Line": "서울 1호선",
      "Name": "시청역",
      "lat": 37.56533728,
      "lng": 126.9771812
    },
    {
      "Line": "서울 1호선",
      "Name": "종각역",
      "lat": 37.57022168,
      "lng": 126.9831338
    },
    {
      "Line": "서울 2호선",
      "Name": "낙성대역",
      "lat": 37.47708963,
      "lng": 126.9635058
    },
    {
      "Line": "서울 2호선",
      "Name": "서울대입구역",
      "lat": 37.4812845,
      "lng": 126.9526951
    },
    {
      "Line": "서울 2호선",
      "Name": "강변(동서울터미널)",
      "lat": 37.53511805,
      "lng": 127.094723
    },
    {
      "Line": "서울 2호선",
      "Name": "영등포구청역",
      "lat": 37.52583052,
      "lng": 126.8966683
    },
    {
      "Line": "서울 2호선",
      "Name": "잠실새내역",
      "lat": 37.51160835,
      "lng": 127.0863007
    },
    {
      "Line": "서울 2호선",
      "Name": "당산역",
      "lat": 37.5347735,
      "lng": 126.9026073
    },
    {
      "Line": "서울 2호선",
      "Name": "충정로역",
      "lat": 37.55974797,
      "lng": 126.9644842
    },
    {
      "Line": "서울 2호선",
      "Name": "종합운동장역",
      "lat": 37.51113026,
      "lng": 127.0738359
    },
    {
      "Line": "서울 2호선",
      "Name": "합정역",
      "lat": 37.54990144,
      "lng": 126.9144473
    },
    {
      "Line": "서울 2호선",
      "Name": "홍대입구역",
      "lat": 37.55686353,
      "lng": 126.923765
    },
    {
      "Line": "서울 2호선",
      "Name": "삼성역",
      "lat": 37.50881193,
      "lng": 127.0630209
    },
    {
      "Line": "서울 2호선",
      "Name": "신답역",
      "lat": 37.56983509,
      "lng": 127.0470665
    },
    {
      "Line": "서울 2호선",
      "Name": "선릉역",
      "lat": 37.50449378,
      "lng": 127.0489481
    },
    {
      "Line": "서울 2호선",
      "Name": "신정네거리역",
      "lat": 37.5202159,
      "lng": 126.852876
    },
    {
      "Line": "서울 2호선",
      "Name": "역삼역",
      "lat": 37.50066001,
      "lng": 127.0364604
    },
    {
      "Line": "서울 2호선",
      "Name": "강남역",
      "lat": 37.49808544,
      "lng": 127.0279777
    },
    {
      "Line": "서울 2호선",
      "Name": "교대역",
      "lat": 37.49273596,
      "lng": 127.0138634
    },
    {
      "Line": "서울 2호선",
      "Name": "방배역",
      "lat": 37.48145613,
      "lng": 126.9975353
    },
    {
      "Line": "서울 2호선",
      "Name": "사당역",
      "lat": 37.47655322,
      "lng": 126.9815495
    },
    {
      "Line": "서울 2호선",
      "Name": "봉천역",
      "lat": 37.48246891,
      "lng": 126.941682
    },
    {
      "Line": "서울 2호선",
      "Name": "신림역",
      "lat": 37.48426443,
      "lng": 126.9297409
    },
    {
      "Line": "서울 2호선",
      "Name": "신대방역",
      "lat": 37.48764145,
      "lng": 126.9135007
    },
    {
      "Line": "서울 2호선",
      "Name": "구로디지털단지역",
      "lat": 37.48525337,
      "lng": 126.9014731
    },
    {
      "Line": "서울 2호선",
      "Name": "신도림역",
      "lat": 37.50890487,
      "lng": 126.891308
    },
    {
      "Line": "서울 2호선",
      "Name": "문래역",
      "lat": 37.51797209,
      "lng": 126.8947562
    },
    {
      "Line": "서울 2호선",
      "Name": "신촌역",
      "lat": 37.55519546,
      "lng": 126.9369627
    },
    {
      "Line": "서울 2호선",
      "Name": "이대역",
      "lat": 37.5568039,
      "lng": 126.9464228
    },
    {
      "Line": "서울 2호선",
      "Name": "아현역",
      "lat": 37.55740257,
      "lng": 126.9561329
    },
    {
      "Line": "서울 2호선",
      "Name": "까치산역",
      "lat": 37.53222704,
      "lng": 126.8464262
    },
    {
      "Line": "서울 2호선",
      "Name": "시청역",
      "lat": 37.56533728,
      "lng": 126.9771812
    },
    {
      "Line": "서울 2호선",
      "Name": "을지로입구역",
      "lat": 37.5660229,
      "lng": 126.982184
    },
    {
      "Line": "서울 2호선",
      "Name": "을지로3가역",
      "lat": 37.56627618,
      "lng": 126.9909675
    },
    {
      "Line": "서울 2호선",
      "Name": "을지로4가역",
      "lat": 37.5666369,
      "lng": 126.997623
    },
    {
      "Line": "서울 2호선",
      "Name": "동대문역사문화공원역",
      "lat": 37.56564549,
      "lng": 127.0089872
    },
    {
      "Line": "서울 2호선",
      "Name": "신당역",
      "lat": 37.56566224,
      "lng": 127.0194685
    },
    {
      "Line": "서울 2호선",
      "Name": "한양대역",
      "lat": 37.55570879,
      "lng": 127.0436172
    },
    {
      "Line": "서울 2호선",
      "Name": "뚝섬역",
      "lat": 37.54723796,
      "lng": 127.0473692
    },
    {
      "Line": "서울 2호선",
      "Name": "성수역",
      "lat": 37.54458522,
      "lng": 127.0560579
    },
    {
      "Line": "서울 2호선",
      "Name": "건대입구역",
      "lat": 37.54039761,
      "lng": 127.0692029
    },
    {
      "Line": "서울 2호선",
      "Name": "구의역",
      "lat": 37.53716086,
      "lng": 127.0861718
    },
    {
      "Line": "서울 2호선",
      "Name": "잠실나루역",
      "lat": 37.5206944,
      "lng": 127.1037997
    },
    {
      "Line": "서울 2호선",
      "Name": "잠실역",
      "lat": 37.51330927,
      "lng": 127.1002152
    },
    {
      "Line": "서울 2호선",
      "Name": "용답역",
      "lat": 37.56212098,
      "lng": 127.0508873
    },
    {
      "Line": "서울 2호선",
      "Name": "서초역",
      "lat": 37.49183552,
      "lng": 127.007644
    },
    {
      "Line": "서울 2호선",
      "Name": "왕십리역",
      "lat": 37.56126116,
      "lng": 127.0370785
    },
    {
      "Line": "서울 2호선",
      "Name": "상왕십리역",
      "lat": 37.56443486,
      "lng": 127.0292701
    },
    {
      "Line": "서울 2호선",
      "Name": "대림역",
      "lat": 37.49330273,
      "lng": 126.8949265
    },
    {
      "Line": "서울 2호선",
      "Name": "신설동역",
      "lat": 37.57602276,
      "lng": 127.0244522
    },
    {
      "Line": "서울 2호선",
      "Name": "도림천역",
      "lat": 37.51450082,
      "lng": 126.8826355
    },
    {
      "Line": "서울 2호선",
      "Name": "양천구청역",
      "lat": 37.51237445,
      "lng": 126.8657179
    },
    {
      "Line": "서울 2호선",
      "Name": "용두역",
      "lat": 37.57405492,
      "lng": 127.0382621
    },
    {
      "Line": "서울 3호선",
      "Name": "불광역",
      "lat": 37.61004419,
      "lng": 126.9303022
    },
    {
      "Line": "서울 3호선",
      "Name": "안국역",
      "lat": 37.57649291,
      "lng": 126.9854192
    },
    {
      "Line": "서울 3호선",
      "Name": "동대입구역",
      "lat": 37.55905041,
      "lng": 127.0052968
    },
    {
      "Line": "서울 3호선",
      "Name": "약수역",
      "lat": 37.55449098,
      "lng": 127.0108871
    },
    {
      "Line": "서울 3호선",
      "Name": "녹번역",
      "lat": 37.60080316,
      "lng": 126.9358144
    },
    {
      "Line": "서울 3호선",
      "Name": "금호역",
      "lat": 37.54825552,
      "lng": 127.0158201
    },
    {
      "Line": "서울 3호선",
      "Name": "홍제역",
      "lat": 37.58878817,
      "lng": 126.944158
    },
    {
      "Line": "서울 3호선",
      "Name": "옥수역",
      "lat": 37.54155186,
      "lng": 127.0173802
    },
    {
      "Line": "서울 3호선",
      "Name": "압구정역",
      "lat": 37.52648497,
      "lng": 127.028486
    },
    {
      "Line": "서울 3호선",
      "Name": "신사역",
      "lat": 37.51643147,
      "lng": 127.0202927
    },
    {
      "Line": "서울 3호선",
      "Name": "지축역",
      "lat": 37.64814503,
      "lng": 126.9138361
    },
    {
      "Line": "서울 3호선",
      "Name": "구파발역",
      "lat": 37.63641776,
      "lng": 126.9188347
    },
    {
      "Line": "서울 3호선",
      "Name": "연신내역",
      "lat": 37.61919243,
      "lng": 126.9210962
    },
    {
      "Line": "서울 3호선",
      "Name": "무악재역",
      "lat": 37.58255602,
      "lng": 126.950231
    },
    {
      "Line": "서울 3호선",
      "Name": "독립문역",
      "lat": 37.57446808,
      "lng": 126.9579114
    },
    {
      "Line": "서울 3호선",
      "Name": "경복궁역",
      "lat": 37.5757881,
      "lng": 126.9736687
    },
    {
      "Line": "서울 3호선",
      "Name": "종로3가역",
      "lat": 37.57042084,
      "lng": 126.9921442
    },
    {
      "Line": "서울 3호선",
      "Name": "을지로3가역",
      "lat": 37.56627618,
      "lng": 126.9909675
    },
    {
      "Line": "서울 3호선",
      "Name": "잠원역",
      "lat": 37.51288271,
      "lng": 127.0114014
    },
    {
      "Line": "서울 3호선",
      "Name": "고속터미널역",
      "lat": 37.50453984,
      "lng": 127.0051346
    },
    {
      "Line": "서울 3호선",
      "Name": "교대역",
      "lat": 37.49273596,
      "lng": 127.0138634
    },
    {
      "Line": "서울 3호선",
      "Name": "남부터미널역",
      "lat": 37.48518522,
      "lng": 127.0161912
    },
    {
      "Line": "서울 3호선",
      "Name": "양재역",
      "lat": 37.48456871,
      "lng": 127.034146
    },
    {
      "Line": "서울 3호선",
      "Name": "매봉역",
      "lat": 37.48692506,
      "lng": 127.0466979
    },
    {
      "Line": "서울 3호선",
      "Name": "도곡역",
      "lat": 37.49097578,
      "lng": 127.0554977
    },
    {
      "Line": "서울 3호선",
      "Name": "대치역",
      "lat": 37.49448585,
      "lng": 127.0631898
    },
    {
      "Line": "서울 3호선",
      "Name": "학여울역",
      "lat": 37.496878,
      "lng": 127.071153
    },
    {
      "Line": "서울 3호선",
      "Name": "대청역",
      "lat": 37.49370112,
      "lng": 127.0795179
    },
    {
      "Line": "서울 3호선",
      "Name": "일원역",
      "lat": 37.48398507,
      "lng": 127.0841207
    },
    {
      "Line": "서울 3호선",
      "Name": "수서역",
      "lat": 37.48528432,
      "lng": 127.1044517
    },
    {
      "Line": "서울 3호선",
      "Name": "가락시장역",
      "lat": 37.49309205,
      "lng": 127.1182582
    },
    {
      "Line": "서울 3호선",
      "Name": "경찰병원역",
      "lat": 37.49598689,
      "lng": 127.1244824
    },
    {
      "Line": "서울 3호선",
      "Name": "오금역",
      "lat": 37.50212807,
      "lng": 127.1279306
    },
    {
      "Line": "서울 3호선",
      "Name": "원당역",
      "lat": 37.65309939,
      "lng": 126.8429139
    },
    {
      "Line": "서울 3호선",
      "Name": "대곡역",
      "lat": 37.63168113,
      "lng": 126.810921
    },
    {
      "Line": "서울 3호선",
      "Name": "백석역",
      "lat": 37.64295874,
      "lng": 126.7881179
    },
    {
      "Line": "서울 3호선",
      "Name": "마두역",
      "lat": 37.65223751,
      "lng": 126.7775981
    },
    {
      "Line": "서울 3호선",
      "Name": "정발산역",
      "lat": 37.65947341,
      "lng": 126.773406
    },
    {
      "Line": "서울 3호선",
      "Name": "주엽역",
      "lat": 37.67013504,
      "lng": 126.7612454
    },
    {
      "Line": "서울 3호선",
      "Name": "대화역",
      "lat": 37.67614293,
      "lng": 126.7474874
    },
    {
      "Line": "서울 3호선",
      "Name": "원흥역",
      "lat": 37.65068496,
      "lng": 126.8730162
    },
    {
      "Line": "서울 3호선",
      "Name": "삼송역",
      "lat": 37.65306773,
      "lng": 126.8956537
    },
    {
      "Line": "서울 3호선",
      "Name": "충무로역",
      "lat": 37.56139298,
      "lng": 126.9941372
    },
    {
      "Line": "서울 3호선",
      "Name": "화정역",
      "lat": 37.63463316,
      "lng": 126.8326658
    },
    {
      "Line": "서울 4호선",
      "Name": "당고개역",
      "lat": 37.67020604,
      "lng": 127.0790485
    },
    {
      "Line": "서울 4호선",
      "Name": "상계역",
      "lat": 37.66071334,
      "lng": 127.0734171
    },
    {
      "Line": "서울 4호선",
      "Name": "노원역",
      "lat": 37.65634036,
      "lng": 127.0634401
    },
    {
      "Line": "서울 4호선",
      "Name": "창동역",
      "lat": 37.65332049,
      "lng": 127.0476405
    },
    {
      "Line": "서울 4호선",
      "Name": "쌍문역",
      "lat": 37.6485318,
      "lng": 127.0346516
    },
    {
      "Line": "서울 4호선",
      "Name": "수유역",
      "lat": 37.63786648,
      "lng": 127.0254921
    },
    {
      "Line": "서울 4호선",
      "Name": "미아역",
      "lat": 37.62664008,
      "lng": 127.026032
    },
    {
      "Line": "서울 4호선",
      "Name": "미아사거리역",
      "lat": 37.61326845,
      "lng": 127.0300821
    },
    {
      "Line": "서울 4호선",
      "Name": "길음역",
      "lat": 37.60337676,
      "lng": 127.02505
    },
    {
      "Line": "서울 4호선",
      "Name": "성신여대입구역",
      "lat": 37.59296272,
      "lng": 127.0171204
    },
    {
      "Line": "서울 4호선",
      "Name": "한성대입구역",
      "lat": 37.58840479,
      "lng": 127.0060008
    },
    {
      "Line": "서울 4호선",
      "Name": "혜화역",
      "lat": 37.5820259,
      "lng": 127.0019246
    },
    {
      "Line": "서울 4호선",
      "Name": "동대문역",
      "lat": 37.571664,
      "lng": 127.010618
    },
    {
      "Line": "서울 4호선",
      "Name": "동대문역사문화공원역",
      "lat": 37.56564549,
      "lng": 127.0089872
    },
    {
      "Line": "서울 4호선",
      "Name": "충무로역",
      "lat": 37.56139298,
      "lng": 126.9941372
    },
    {
      "Line": "서울 4호선",
      "Name": "명동역",
      "lat": 37.56095986,
      "lng": 126.9863956
    },
    {
      "Line": "서울 4호선",
      "Name": "회현역",
      "lat": 37.55876024,
      "lng": 126.9784282
    },
    {
      "Line": "서울 4호선",
      "Name": "서울역",
      "lat": 37.55331631,
      "lng": 126.9697383
    },
    {
      "Line": "서울 4호선",
      "Name": "숙대입구역",
      "lat": 37.54459523,
      "lng": 126.9721181
    },
    {
      "Line": "서울 4호선",
      "Name": "삼각지역",
      "lat": 37.53443213,
      "lng": 126.9729139
    },
    {
      "Line": "서울 4호선",
      "Name": "신용산역",
      "lat": 37.52925915,
      "lng": 126.9679605
    },
    {
      "Line": "서울 4호선",
      "Name": "이촌역",
      "lat": 37.52244891,
      "lng": 126.9733255
    },
    {
      "Line": "서울 4호선",
      "Name": "동작역",
      "lat": 37.50297056,
      "lng": 126.980299
    },
    {
      "Line": "서울 4호선",
      "Name": "총신대입구역",
      "lat": 37.48678878,
      "lng": 126.9822028
    },
    {
      "Line": "서울 4호선",
      "Name": "사당역",
      "lat": 37.47655322,
      "lng": 126.9815495
    },
    {
      "Line": "서울 4호선",
      "Name": "남태령역",
      "lat": 37.46424635,
      "lng": 126.9890807
    },
    {
      "Line": "서울 4호선",
      "Name": "선바위역",
      "lat": 37.45174078,
      "lng": 127.0022151
    },
    {
      "Line": "서울 4호선",
      "Name": "경마공원역",
      "lat": 37.44395578,
      "lng": 127.00782
    },
    {
      "Line": "서울 4호선",
      "Name": "대공원역",
      "lat": 37.43604493,
      "lng": 127.0067344
    },
    {
      "Line": "서울 4호선",
      "Name": "과천역",
      "lat": 37.4328735,
      "lng": 126.9966103
    },
    {
      "Line": "서울 4호선",
      "Name": "정부과천청사역",
      "lat": 37.42649391,
      "lng": 126.9898545
    },
    {
      "Line": "서울 4호선",
      "Name": "인덕원역",
      "lat": 37.40147975,
      "lng": 126.9766663
    },
    {
      "Line": "서울 4호선",
      "Name": "평촌역",
      "lat": 37.3942323,
      "lng": 126.9637945
    },
    {
      "Line": "서울 4호선",
      "Name": "범계역",
      "lat": 37.38977654,
      "lng": 126.9507652
    },
    {
      "Line": "서울 4호선",
      "Name": "금정역",
      "lat": 37.37245559,
      "lng": 126.9434607
    },
    {
      "Line": "서울 4호선",
      "Name": "산본역",
      "lat": 37.3580157,
      "lng": 126.9330418
    },
    {
      "Line": "서울 4호선",
      "Name": "대야미역",
      "lat": 37.32796512,
      "lng": 126.9168885
    },
    {
      "Line": "서울 4호선",
      "Name": "반월역",
      "lat": 37.31236734,
      "lng": 126.9038199
    },
    {
      "Line": "서울 4호선",
      "Name": "상록수역",
      "lat": 37.30285234,
      "lng": 126.8665876
    },
    {
      "Line": "서울 4호선",
      "Name": "한대앞역",
      "lat": 37.30975702,
      "lng": 126.8536706
    },
    {
      "Line": "서울 4호선",
      "Name": "중앙역",
      "lat": 37.31600848,
      "lng": 126.8384964
    },
    {
      "Line": "서울 4호선",
      "Name": "고잔역",
      "lat": 37.31679727,
      "lng": 126.8230166
    },
    {
      "Line": "서울 4호선",
      "Name": "초지역",
      "lat": 37.32066297,
      "lng": 126.8059491
    },
    {
      "Line": "서울 4호선",
      "Name": "안산역",
      "lat": 37.32701304,
      "lng": 126.7888729
    },
    {
      "Line": "서울 4호선",
      "Name": "신길온천역",
      "lat": 37.33762224,
      "lng": 126.7670415
    },
    {
      "Line": "서울 4호선",
      "Name": "정왕역",
      "lat": 37.35180851,
      "lng": 126.7429119
    },
    {
      "Line": "서울 4호선",
      "Name": "오이도역",
      "lat": 37.36169184,
      "lng": 126.7383855
    },
    {
      "Line": "서울 4호선",
      "Name": "수리산역",
      "lat": 37.35055076,
      "lng": 126.9256219
    },
    {
      "Line": "서울 5호선",
      "Name": "방화역",
      "lat": 37.57758875,
      "lng": 126.8128012
    },
    {
      "Line": "서울 5호선",
      "Name": "개화산역",
      "lat": 37.57253355,
      "lng": 126.8068143
    },
    {
      "Line": "서울 5호선",
      "Name": "김포공항역",
      "lat": 37.56194774,
      "lng": 126.8019069
    },
    {
      "Line": "서울 5호선",
      "Name": "송정역",
      "lat": 37.561154,
      "lng": 126.8124123
    },
    {
      "Line": "서울 5호선",
      "Name": "마곡역",
      "lat": 37.56021781,
      "lng": 126.8246834
    },
    {
      "Line": "서울 5호선",
      "Name": "발산역",
      "lat": 37.55866872,
      "lng": 126.8377251
    },
    {
      "Line": "서울 5호선",
      "Name": "우장산역",
      "lat": 37.54880987,
      "lng": 126.8363206
    },
    {
      "Line": "서울 5호선",
      "Name": "화곡역",
      "lat": 37.54164355,
      "lng": 126.8404324
    },
    {
      "Line": "서울 5호선",
      "Name": "까치산역",
      "lat": 37.53222704,
      "lng": 126.8464262
    },
    {
      "Line": "서울 5호선",
      "Name": "신정역",
      "lat": 37.52501318,
      "lng": 126.8560794
    },
    {
      "Line": "서울 5호선",
      "Name": "목동역",
      "lat": 37.52612248,
      "lng": 126.8646072
    },
    {
      "Line": "서울 5호선",
      "Name": "오목교역",
      "lat": 37.52453046,
      "lng": 126.8752892
    },
    {
      "Line": "서울 5호선",
      "Name": "양평역",
      "lat": 37.52556883,
      "lng": 126.8864193
    },
    {
      "Line": "서울 5호선",
      "Name": "영등포구청역",
      "lat": 37.52583052,
      "lng": 126.8966683
    },
    {
      "Line": "서울 5호선",
      "Name": "영등포시장역",
      "lat": 37.52270218,
      "lng": 126.9051796
    },
    {
      "Line": "서울 5호선",
      "Name": "신길역",
      "lat": 37.51678342,
      "lng": 126.9183536
    },
    {
      "Line": "서울 5호선",
      "Name": "여의도역",
      "lat": 37.52116647,
      "lng": 126.9246384
    },
    {
      "Line": "서울 5호선",
      "Name": "여의나루역",
      "lat": 37.52713613,
      "lng": 126.9329815
    },
    {
      "Line": "서울 5호선",
      "Name": "마포역",
      "lat": 37.53954051,
      "lng": 126.9458467
    },
    {
      "Line": "서울 5호선",
      "Name": "공덕역",
      "lat": 37.54453447,
      "lng": 126.9514331
    },
    {
      "Line": "서울 5호선",
      "Name": "애오개역",
      "lat": 37.55340233,
      "lng": 126.9566558
    },
    {
      "Line": "서울 5호선",
      "Name": "충정로역",
      "lat": 37.55974797,
      "lng": 126.9644842
    },
    {
      "Line": "서울 5호선",
      "Name": "서대문역",
      "lat": 37.56574923,
      "lng": 126.9666319
    },
    {
      "Line": "서울 5호선",
      "Name": "광화문역",
      "lat": 37.5716441,
      "lng": 126.9764096
    },
    {
      "Line": "서울 5호선",
      "Name": "종로3가역",
      "lat": 37.57042084,
      "lng": 126.9921442
    },
    {
      "Line": "서울 5호선",
      "Name": "을지로4가역",
      "lat": 37.5666369,
      "lng": 126.997623
    },
    {
      "Line": "서울 5호선",
      "Name": "동대문역사문화공원역",
      "lat": 37.56564549,
      "lng": 127.0089872
    },
    {
      "Line": "서울 5호선",
      "Name": "청구역",
      "lat": 37.56020299,
      "lng": 127.0139212
    },
    {
      "Line": "서울 5호선",
      "Name": "신금호역",
      "lat": 37.55447169,
      "lng": 127.0204841
    },
    {
      "Line": "서울 5호선",
      "Name": "행당역",
      "lat": 37.55735297,
      "lng": 127.0294937
    },
    {
      "Line": "서울 5호선",
      "Name": "왕십리역",
      "lat": 37.56126116,
      "lng": 127.0370785
    },
    {
      "Line": "서울 5호선",
      "Name": "마장역",
      "lat": 37.56612455,
      "lng": 127.0429667
    },
    {
      "Line": "서울 5호선",
      "Name": "답십리역",
      "lat": 37.56696761,
      "lng": 127.0525432
    },
    {
      "Line": "서울 5호선",
      "Name": "장한평역",
      "lat": 37.56159218,
      "lng": 127.0636992
    },
    {
      "Line": "서울 5호선",
      "Name": "군자역",
      "lat": 37.5571497,
      "lng": 127.0794948
    },
    {
      "Line": "서울 5호선",
      "Name": "아차산역",
      "lat": 37.55224106,
      "lng": 127.0895615
    },
    {
      "Line": "서울 5호선",
      "Name": "광나루역",
      "lat": 37.54529197,
      "lng": 127.1035169
    },
    {
      "Line": "서울 5호선",
      "Name": "천호역",
      "lat": 37.53849681,
      "lng": 127.1239194
    },
    {
      "Line": "서울 5호선",
      "Name": "강동역",
      "lat": 37.53587473,
      "lng": 127.1323782
    },
    {
      "Line": "서울 5호선",
      "Name": "길동역",
      "lat": 37.53781209,
      "lng": 127.1400077
    },
    {
      "Line": "서울 5호선",
      "Name": "굽은다리역",
      "lat": 37.54550319,
      "lng": 127.1428737
    },
    {
      "Line": "서울 5호선",
      "Name": "명일역",
      "lat": 37.5513943,
      "lng": 127.1440392
    },
    {
      "Line": "서울 5호선",
      "Name": "고덕역",
      "lat": 37.55503956,
      "lng": 127.1541639
    },
    {
      "Line": "서울 5호선",
      "Name": "상일동역",
      "lat": 37.55666348,
      "lng": 127.1658921
    },
    {
      "Line": "서울 5호선",
      "Name": "둔촌동역",
      "lat": 37.52765324,
      "lng": 127.1362101
    },
    {
      "Line": "서울 5호선",
      "Name": "올림픽공원역",
      "lat": 37.51632457,
      "lng": 127.1309637
    },
    {
      "Line": "서울 5호선",
      "Name": "방이역",
      "lat": 37.50874343,
      "lng": 127.126087
    },
    {
      "Line": "서울 5호선",
      "Name": "오금역",
      "lat": 37.50212807,
      "lng": 127.1279306
    },
    {
      "Line": "서울 5호선",
      "Name": "개롱역",
      "lat": 37.49795748,
      "lng": 127.1350705
    },
    {
      "Line": "서울 5호선",
      "Name": "마천역",
      "lat": 37.49503458,
      "lng": 127.1528418
    },
    {
      "Line": "서울 5호선",
      "Name": "거여역",
      "lat": 37.49331604,
      "lng": 127.1437693
    },
    {
      "Line": "서울 6호선",
      "Name": "응암역",
      "lat": 37.59848384,
      "lng": 126.9155241
    },
    {
      "Line": "서울 6호선",
      "Name": "역촌역",
      "lat": 37.60621934,
      "lng": 126.9228313
    },
    {
      "Line": "서울 6호선",
      "Name": "불광역",
      "lat": 37.61004419,
      "lng": 126.9303022
    },
    {
      "Line": "서울 6호선",
      "Name": "연신내역",
      "lat": 37.61919243,
      "lng": 126.9210962
    },
    {
      "Line": "서울 6호선",
      "Name": "구산역",
      "lat": 37.61124308,
      "lng": 126.9172538
    },
    {
      "Line": "서울 6호선",
      "Name": "새절역",
      "lat": 37.59086003,
      "lng": 126.9135625
    },
    {
      "Line": "서울 6호선",
      "Name": "증산역",
      "lat": 37.58373913,
      "lng": 126.9094724
    },
    {
      "Line": "서울 6호선",
      "Name": "디지털미디어시티역",
      "lat": 37.57600202,
      "lng": 126.9012631
    },
    {
      "Line": "서울 6호선",
      "Name": "월드컵경기장역",
      "lat": 37.56962115,
      "lng": 126.8990982
    },
    {
      "Line": "서울 6호선",
      "Name": "마포구청역",
      "lat": 37.56347996,
      "lng": 126.9034075
    },
    {
      "Line": "서울 6호선",
      "Name": "망원역",
      "lat": 37.55607905,
      "lng": 126.9100943
    },
    {
      "Line": "서울 6호선",
      "Name": "합정역",
      "lat": 37.54990144,
      "lng": 126.9144473
    },
    {
      "Line": "서울 6호선",
      "Name": "상수역",
      "lat": 37.54776257,
      "lng": 126.9224163
    },
    {
      "Line": "서울 6호선",
      "Name": "광흥창역",
      "lat": 37.54748017,
      "lng": 126.9320127
    },
    {
      "Line": "서울 6호선",
      "Name": "대흥역",
      "lat": 37.54762988,
      "lng": 126.9424687
    },
    {
      "Line": "서울 6호선",
      "Name": "공덕역",
      "lat": 37.54453447,
      "lng": 126.9514331
    },
    {
      "Line": "서울 6호선",
      "Name": "효창공원앞역",
      "lat": 37.53929433,
      "lng": 126.9613936
    },
    {
      "Line": "서울 6호선",
      "Name": "삼각지역",
      "lat": 37.53443213,
      "lng": 126.9729139
    },
    {
      "Line": "서울 6호선",
      "Name": "녹사평역",
      "lat": 37.53470477,
      "lng": 126.9865361
    },
    {
      "Line": "서울 6호선",
      "Name": "이태원역",
      "lat": 37.53450718,
      "lng": 126.9943203
    },
    {
      "Line": "서울 6호선",
      "Name": "한강진역",
      "lat": 37.53978717,
      "lng": 127.0017425
    },
    {
      "Line": "서울 6호선",
      "Name": "버티고개역",
      "lat": 37.54782391,
      "lng": 127.0067218
    },
    {
      "Line": "서울 6호선",
      "Name": "약수역",
      "lat": 37.55449098,
      "lng": 127.0108871
    },
    {
      "Line": "서울 6호선",
      "Name": "독바위역",
      "lat": 37.61840694,
      "lng": 126.9330355
    },
    {
      "Line": "서울 6호선",
      "Name": "신당역",
      "lat": 37.56566224,
      "lng": 127.0194685
    },
    {
      "Line": "서울 6호선",
      "Name": "동묘앞역",
      "lat": 37.57321306,
      "lng": 127.0163461
    },
    {
      "Line": "서울 6호선",
      "Name": "창신역",
      "lat": 37.57941204,
      "lng": 127.0152833
    },
    {
      "Line": "서울 6호선",
      "Name": "보문역",
      "lat": 37.58553809,
      "lng": 127.0199945
    },
    {
      "Line": "서울 6호선",
      "Name": "안암역",
      "lat": 37.586293,
      "lng": 127.0292334
    },
    {
      "Line": "서울 6호선",
      "Name": "고려대역",
      "lat": 37.59043561,
      "lng": 127.0363004
    },
    {
      "Line": "서울 6호선",
      "Name": "월곡역",
      "lat": 37.60180442,
      "lng": 127.0414471
    },
    {
      "Line": "서울 6호선",
      "Name": "상월곡역",
      "lat": 37.60654081,
      "lng": 127.0488111
    },
    {
      "Line": "서울 6호선",
      "Name": "돌곶이역",
      "lat": 37.61053781,
      "lng": 127.0564245
    },
    {
      "Line": "서울 6호선",
      "Name": "석계역",
      "lat": 37.61500193,
      "lng": 127.0656702
    },
    {
      "Line": "서울 6호선",
      "Name": "태릉입구역",
      "lat": 37.61845592,
      "lng": 127.0753917
    },
    {
      "Line": "서울 6호선",
      "Name": "봉화산역",
      "lat": 37.61734543,
      "lng": 127.0913612
    },
    {
      "Line": "서울 6호선",
      "Name": "청구역",
      "lat": 37.56020299,
      "lng": 127.0139212
    },
    {
      "Line": "서울 6호선",
      "Name": "화랑대역",
      "lat": 37.61983796,
      "lng": 127.0835259
    },
    {
      "Line": "서울 6호선",
      "Name": "신내역",
      "lat": 37.61248742,
      "lng": 127.1042669
    },
    {
      "Line": "서울 7호선",
      "Name": "장암역",
      "lat": 37.69995296,
      "lng": 127.0528183
    },
    {
      "Line": "서울 7호선",
      "Name": "도봉산역",
      "lat": 37.68955853,
      "lng": 127.0460537
    },
    {
      "Line": "서울 7호선",
      "Name": "수락산역",
      "lat": 37.67787787,
      "lng": 127.0553419
    },
    {
      "Line": "서울 7호선",
      "Name": "마들역",
      "lat": 37.66519095,
      "lng": 127.0576899
    },
    {
      "Line": "서울 7호선",
      "Name": "노원역",
      "lat": 37.65634036,
      "lng": 127.0634401
    },
    {
      "Line": "서울 7호선",
      "Name": "중계역",
      "lat": 37.64507771,
      "lng": 127.0641103
    },
    {
      "Line": "서울 7호선",
      "Name": "하계역",
      "lat": 37.63646213,
      "lng": 127.0679777
    },
    {
      "Line": "서울 7호선",
      "Name": "태릉입구역",
      "lat": 37.61845592,
      "lng": 127.0753917
    },
    {
      "Line": "서울 7호선",
      "Name": "먹골역",
      "lat": 37.61061578,
      "lng": 127.0777622
    },
    {
      "Line": "서울 7호선",
      "Name": "중화역",
      "lat": 37.60254189,
      "lng": 127.0792939
    },
    {
      "Line": "서울 7호선",
      "Name": "상봉역",
      "lat": 37.59669897,
      "lng": 127.0857421
    },
    {
      "Line": "서울 7호선",
      "Name": "면목역",
      "lat": 37.58869687,
      "lng": 127.0874993
    },
    {
      "Line": "서울 7호선",
      "Name": "사가정역",
      "lat": 37.58092958,
      "lng": 127.0884864
    },
    {
      "Line": "서울 7호선",
      "Name": "용마산역",
      "lat": 37.57370489,
      "lng": 127.0867572
    },
    {
      "Line": "서울 7호선",
      "Name": "중곡역",
      "lat": 37.56586804,
      "lng": 127.084258
    },
    {
      "Line": "서울 7호선",
      "Name": "군자역",
      "lat": 37.5571497,
      "lng": 127.0794948
    },
    {
      "Line": "서울 7호선",
      "Name": "어린이대공원역",
      "lat": 37.54794467,
      "lng": 127.0746417
    },
    {
      "Line": "서울 7호선",
      "Name": "건대입구역",
      "lat": 37.54039761,
      "lng": 127.0692029
    },
    {
      "Line": "서울 7호선",
      "Name": "뚝섬유원지역",
      "lat": 37.53155118,
      "lng": 127.0667736
    },
    {
      "Line": "서울 7호선",
      "Name": "청담역",
      "lat": 37.51944838,
      "lng": 127.0537089
    },
    {
      "Line": "서울 7호선",
      "Name": "강남구청역",
      "lat": 37.51720086,
      "lng": 127.0412872
    },
    {
      "Line": "서울 7호선",
      "Name": "학동역",
      "lat": 37.5143566,
      "lng": 127.0318974
    },
    {
      "Line": "서울 7호선",
      "Name": "논현역",
      "lat": 37.51118739,
      "lng": 127.0216486
    },
    {
      "Line": "서울 7호선",
      "Name": "반포역",
      "lat": 37.50814341,
      "lng": 127.0115816
    },
    {
      "Line": "서울 7호선",
      "Name": "고속터미널역",
      "lat": 37.50453984,
      "lng": 127.0051346
    },
    {
      "Line": "서울 7호선",
      "Name": "내방역",
      "lat": 37.48765492,
      "lng": 126.9935776
    },
    {
      "Line": "서울 7호선",
      "Name": "이수역",
      "lat": 37.48678878,
      "lng": 126.9822028
    },
    {
      "Line": "서울 7호선",
      "Name": "남성역",
      "lat": 37.4847863,
      "lng": 126.9708966
    },
    {
      "Line": "서울 7호선",
      "Name": "숭실대입구역",
      "lat": 37.49631367,
      "lng": 126.9536129
    },
    {
      "Line": "서울 7호선",
      "Name": "상도역",
      "lat": 37.5028526,
      "lng": 126.9479089
    },
    {
      "Line": "서울 7호선",
      "Name": "장승배기역",
      "lat": 37.50488464,
      "lng": 126.9390633
    },
    {
      "Line": "서울 7호선",
      "Name": "신대방삼거리역",
      "lat": 37.49974281,
      "lng": 126.928211
    },
    {
      "Line": "서울 7호선",
      "Name": "보라매역",
      "lat": 37.49991814,
      "lng": 126.9205886
    },
    {
      "Line": "서울 7호선",
      "Name": "신풍역",
      "lat": 37.50010856,
      "lng": 126.9097317
    },
    {
      "Line": "서울 7호선",
      "Name": "대림역",
      "lat": 37.49330273,
      "lng": 126.8949265
    },
    {
      "Line": "서울 7호선",
      "Name": "남구로역",
      "lat": 37.48698929,
      "lng": 126.8879703
    },
    {
      "Line": "서울 7호선",
      "Name": "가산디지털단지역",
      "lat": 37.48038874,
      "lng": 126.8826437
    },
    {
      "Line": "서울 7호선",
      "Name": "철산역",
      "lat": 37.47619283,
      "lng": 126.868202
    },
    {
      "Line": "서울 7호선",
      "Name": "광명사거리역",
      "lat": 37.47929468,
      "lng": 126.8548557
    },
    {
      "Line": "서울 7호선",
      "Name": "천왕역",
      "lat": 37.48684204,
      "lng": 126.8385816
    },
    {
      "Line": "서울 7호선",
      "Name": "온수역",
      "lat": 37.49195669,
      "lng": 126.8238253
    },
    {
      "Line": "서울 7호선",
      "Name": "까치울역",
      "lat": 37.50620931,
      "lng": 126.8113284
    },
    {
      "Line": "서울 7호선",
      "Name": "부천종합운동장역",
      "lat": 37.50541107,
      "lng": 126.7972158
    },
    {
      "Line": "서울 7호선",
      "Name": "신중동역",
      "lat": 37.50294171,
      "lng": 126.7768882
    },
    {
      "Line": "서울 7호선",
      "Name": "부천시청역",
      "lat": 37.50462869,
      "lng": 126.764058
    },
    {
      "Line": "서울 7호선",
      "Name": "삼산체육관역",
      "lat": 37.50649141,
      "lng": 126.7414097
    },
    {
      "Line": "서울 7호선",
      "Name": "굴포천역",
      "lat": 37.50702756,
      "lng": 126.731342
    },
    {
      "Line": "서울 7호선",
      "Name": "부평구청역",
      "lat": 37.50741907,
      "lng": 126.721433
    },
    {
      "Line": "서울 7호선",
      "Name": "공릉역",
      "lat": 37.62553917,
      "lng": 127.07302
    },
    {
      "Line": "서울 7호선",
      "Name": "춘의역",
      "lat": 37.50368117,
      "lng": 126.7869967
    },
    {
      "Line": "서울 7호선",
      "Name": "상동역",
      "lat": 37.50577775,
      "lng": 126.7531744
    },
    {
      "Line": "서울 8호선",
      "Name": "암사역",
      "lat": 37.55013386,
      "lng": 127.1275373
    },
    {
      "Line": "서울 8호선",
      "Name": "천호역",
      "lat": 37.53849681,
      "lng": 127.1239194
    },
    {
      "Line": "서울 8호선",
      "Name": "강동구청역",
      "lat": 37.53019318,
      "lng": 127.1204437
    },
    {
      "Line": "서울 8호선",
      "Name": "몽촌토성역",
      "lat": 37.5178029,
      "lng": 127.112845
    },
    {
      "Line": "서울 8호선",
      "Name": "잠실역",
      "lat": 37.51330927,
      "lng": 127.1002152
    },
    {
      "Line": "서울 8호선",
      "Name": "석촌역",
      "lat": 37.50541053,
      "lng": 127.1069905
    },
    {
      "Line": "서울 8호선",
      "Name": "송파역",
      "lat": 37.49971136,
      "lng": 127.1121845
    },
    {
      "Line": "서울 8호선",
      "Name": "가락시장역",
      "lat": 37.49309205,
      "lng": 127.1182582
    },
    {
      "Line": "서울 8호선",
      "Name": "문정역",
      "lat": 37.48602386,
      "lng": 127.1224758
    },
    {
      "Line": "서울 8호선",
      "Name": "장지역",
      "lat": 37.4786317,
      "lng": 127.126172
    },
    {
      "Line": "서울 8호선",
      "Name": "복정역",
      "lat": 37.47073829,
      "lng": 127.1267014
    },
    {
      "Line": "서울 8호선",
      "Name": "산성역",
      "lat": 37.45679931,
      "lng": 127.1500739
    },
    {
      "Line": "서울 8호선",
      "Name": "남한산성입구역",
      "lat": 37.45166871,
      "lng": 127.1598735
    },
    {
      "Line": "서울 8호선",
      "Name": "단대오거리역",
      "lat": 37.4450234,
      "lng": 127.156763
    },
    {
      "Line": "서울 8호선",
      "Name": "신흥역",
      "lat": 37.44090864,
      "lng": 127.1475336
    },
    {
      "Line": "서울 8호선",
      "Name": "수진역",
      "lat": 37.43736718,
      "lng": 127.1405209
    },
    {
      "Line": "서울 8호선",
      "Name": "모란역",
      "lat": 37.43402749,
      "lng": 127.1299614
    },
    {
      "Line": "서울 9호선",
      "Name": "개화역",
      "lat": 37.57833729,
      "lng": 126.7968823
    },
    {
      "Line": "서울 9호선",
      "Name": "김포공항역",
      "lat": 37.56194774,
      "lng": 126.8019069
    },
    {
      "Line": "서울 9호선",
      "Name": "공항시장역",
      "lat": 37.56367389,
      "lng": 126.810595
    },
    {
      "Line": "서울 9호선",
      "Name": "신방화역",
      "lat": 37.56748653,
      "lng": 126.8172183
    },
    {
      "Line": "서울 9호선",
      "Name": "마곡나루역",
      "lat": 37.56670899,
      "lng": 126.8274074
    },
    {
      "Line": "서울 9호선",
      "Name": "양천향교역",
      "lat": 37.56806284,
      "lng": 126.8419608
    },
    {
      "Line": "서울 9호선",
      "Name": "증미역",
      "lat": 37.55812134,
      "lng": 126.8606334
    },
    {
      "Line": "서울 9호선",
      "Name": "등촌역",
      "lat": 37.55072086,
      "lng": 126.8655586
    },
    {
      "Line": "서울 9호선",
      "Name": "선유도역",
      "lat": 37.53815324,
      "lng": 126.8933248
    },
    {
      "Line": "서울 9호선",
      "Name": "염창역",
      "lat": 37.54696492,
      "lng": 126.8748671
    },
    {
      "Line": "서울 9호선",
      "Name": "신목동역",
      "lat": 37.54427035,
      "lng": 126.8830868
    },
    {
      "Line": "서울 9호선",
      "Name": "당산역",
      "lat": 37.5347735,
      "lng": 126.9026073
    },
    {
      "Line": "서울 9호선",
      "Name": "국회의사당역",
      "lat": 37.52813568,
      "lng": 126.9178209
    },
    {
      "Line": "서울 9호선",
      "Name": "여의도역",
      "lat": 37.52116647,
      "lng": 126.9246384
    },
    {
      "Line": "서울 9호선",
      "Name": "샛강역",
      "lat": 37.51736656,
      "lng": 126.9283751
    },
    {
      "Line": "서울 9호선",
      "Name": "노량진역",
      "lat": 37.51357125,
      "lng": 126.9408887
    },
    {
      "Line": "서울 9호선",
      "Name": "노들역",
      "lat": 37.5126577,
      "lng": 126.9530825
    },
    {
      "Line": "서울 9호선",
      "Name": "흑석역",
      "lat": 37.50916547,
      "lng": 126.963445
    },
    {
      "Line": "서울 9호선",
      "Name": "동작역",
      "lat": 37.50297056,
      "lng": 126.980299
    },
    {
      "Line": "서울 9호선",
      "Name": "구반포역",
      "lat": 37.50142181,
      "lng": 126.9874468
    },
    {
      "Line": "서울 9호선",
      "Name": "신반포역",
      "lat": 37.50349472,
      "lng": 126.9960643
    },
    {
      "Line": "서울 9호선",
      "Name": "고속터미널역",
      "lat": 37.50453984,
      "lng": 127.0051346
    },
    {
      "Line": "서울 9호선",
      "Name": "사평역",
      "lat": 37.50423263,
      "lng": 127.015268
    },
    {
      "Line": "서울 9호선",
      "Name": "신논현역",
      "lat": 37.50480751,
      "lng": 127.0254694
    },
    {
      "Line": "서울 9호선",
      "Name": "석촌고분역",
      "lat": 37.50246428,
      "lng": 127.0964912
    },
    {
      "Line": "서울 9호선",
      "Name": "석촌역",
      "lat": 37.50541053,
      "lng": 127.1069905
    },
    {
      "Line": "서울 9호선",
      "Name": "송파나루역",
      "lat": 37.51100951,
      "lng": 127.1126538
    },
    {
      "Line": "서울 9호선",
      "Name": "한성백제역",
      "lat": 37.51651998,
      "lng": 127.1164401
    },
    {
      "Line": "서울 9호선",
      "Name": "올림픽공원역",
      "lat": 37.51632457,
      "lng": 127.1309637
    },
    {
      "Line": "서울 9호선",
      "Name": "둔촌오륜역",
      "lat": 37.51939724,
      "lng": 127.1386385
    },
    {
      "Line": "서울 9호선",
      "Name": "중앙보훈병원역",
      "lat": 37.52839539,
      "lng": 127.1484071
    },
    {
      "Line": "서울 9호선",
      "Name": "가양역",
      "lat": 37.56142949,
      "lng": 126.8544022
    },
    {
      "Line": "서울 9호선",
      "Name": "선정릉역",
      "lat": 37.51092904,
      "lng": 127.0436137
    },
    {
      "Line": "서울 9호선",
      "Name": "삼성중앙역",
      "lat": 37.51296146,
      "lng": 127.0530256
    },
    {
      "Line": "서울 9호선",
      "Name": "봉은사역",
      "lat": 37.51423744,
      "lng": 127.0602203
    },
    {
      "Line": "서울 9호선",
      "Name": "종합운동장역",
      "lat": 37.51113026,
      "lng": 127.0738359
    },
    {
      "Line": "서울 9호선",
      "Name": "삼전역",
      "lat": 37.5045437,
      "lng": 127.0873557
    },
    {
      "Line": "서울 9호선",
      "Name": "언주역",
      "lat": 37.50732819,
      "lng": 127.0339528
    },
    {
      "Line": "수인분당",
      "Name": "구룡역",
      "lat": 37.48702744,
      "lng": 127.0594749
    },
    {
      "Line": "수인분당",
      "Name": "선릉역",
      "lat": 37.50449378,
      "lng": 127.0489481
    },
    {
      "Line": "수인분당",
      "Name": "한티역",
      "lat": 37.4962749,
      "lng": 127.0529007
    },
    {
      "Line": "수인분당",
      "Name": "도곡역",
      "lat": 37.49097578,
      "lng": 127.0554977
    },
    {
      "Line": "수인분당",
      "Name": "개포동역",
      "lat": 37.48913227,
      "lng": 127.0661026
    },
    {
      "Line": "수인분당",
      "Name": "대모산입구역",
      "lat": 37.49154287,
      "lng": 127.0730703
    },
    {
      "Line": "수인분당",
      "Name": "왕십리역",
      "lat": 37.56126116,
      "lng": 127.0370785
    },
    {
      "Line": "수인분당",
      "Name": "수서역",
      "lat": 37.48528432,
      "lng": 127.1044517
    },
    {
      "Line": "수인분당",
      "Name": "복정역",
      "lat": 37.47073829,
      "lng": 127.1267014
    },
    {
      "Line": "수인분당",
      "Name": "서울숲역",
      "lat": 37.54363499,
      "lng": 127.0447417
    },
    {
      "Line": "수인분당",
      "Name": "압구정로데오역",
      "lat": 37.52750857,
      "lng": 127.0405915
    },
    {
      "Line": "수인분당",
      "Name": "강남구청역",
      "lat": 37.51720086,
      "lng": 127.0412872
    },
    {
      "Line": "수인분당",
      "Name": "선정릉역",
      "lat": 37.51092904,
      "lng": 127.0436137
    },
    {
      "Line": "수인분당",
      "Name": "가천대역",
      "lat": 37.4485554,
      "lng": 127.1266866
    },
    {
      "Line": "수인분당",
      "Name": "태평역",
      "lat": 37.43977839,
      "lng": 127.127734
    },
    {
      "Line": "수인분당",
      "Name": "모란역",
      "lat": 37.43402749,
      "lng": 127.1299614
    },
    {
      "Line": "수인분당",
      "Name": "야탑역",
      "lat": 37.41135924,
      "lng": 127.1287249
    },
    {
      "Line": "수인분당",
      "Name": "서현역",
      "lat": 37.38500102,
      "lng": 127.1234179
    },
    {
      "Line": "수인분당",
      "Name": "수내역",
      "lat": 37.37846877,
      "lng": 127.1142843
    },
    {
      "Line": "수인분당",
      "Name": "정자역",
      "lat": 37.3661666,
      "lng": 127.1080794
    },
    {
      "Line": "수인분당",
      "Name": "미금역",
      "lat": 37.3500734,
      "lng": 127.1090044
    },
    {
      "Line": "수인분당",
      "Name": "이매역",
      "lat": 37.39470993,
      "lng": 127.1272961
    },
    {
      "Line": "수인분당",
      "Name": "구성역",
      "lat": 37.29896985,
      "lng": 127.1056823
    },
    {
      "Line": "수인분당",
      "Name": "신갈역",
      "lat": 37.28613395,
      "lng": 127.1112802
    },
    {
      "Line": "수인분당",
      "Name": "상갈역",
      "lat": 37.26180824,
      "lng": 127.1087192
    },
    {
      "Line": "수인분당",
      "Name": "청명역",
      "lat": 37.25952516,
      "lng": 127.0789555
    },
    {
      "Line": "수인분당",
      "Name": "영통역",
      "lat": 37.2514927,
      "lng": 127.0713274
    },
    {
      "Line": "수인분당",
      "Name": "망포역",
      "lat": 37.24582396,
      "lng": 127.0568503
    },
    {
      "Line": "수인분당",
      "Name": "매탄권선역",
      "lat": 37.2524983,
      "lng": 127.0408041
    },
    {
      "Line": "수인분당",
      "Name": "수원시청역",
      "lat": 37.2619082,
      "lng": 127.0308437
    },
    {
      "Line": "수인분당",
      "Name": "매교역",
      "lat": 37.26551532,
      "lng": 127.0158961
    },
    {
      "Line": "수인분당",
      "Name": "청량리역",
      "lat": 37.58071852,
      "lng": 127.0484998
    },
    {
      "Line": "수인분당",
      "Name": "보정역",
      "lat": 37.31277133,
      "lng": 127.1083188
    },
    {
      "Line": "수인분당",
      "Name": "오리역",
      "lat": 37.33981974,
      "lng": 127.1089444
    },
    {
      "Line": "수인분당",
      "Name": "죽전역",
      "lat": 37.32437739,
      "lng": 127.1075005
    },
    {
      "Line": "수인분당",
      "Name": "기흥역",
      "lat": 37.27544207,
      "lng": 127.1170374
    },
    {
      "Line": "수인분당",
      "Name": "수원역",
      "lat": 37.2657867,
      "lng": 127.0000902
    },
    {
      "Line": "신분당",
      "Name": "정자역",
      "lat": 37.3661666,
      "lng": 127.1080794
    },
    {
      "Line": "신분당",
      "Name": "미금역",
      "lat": 37.3500734,
      "lng": 127.1090044
    },
    {
      "Line": "신분당",
      "Name": "동천역",
      "lat": 37.33782491,
      "lng": 127.1028478
    },
    {
      "Line": "신분당",
      "Name": "수지구청역",
      "lat": 37.32247817,
      "lng": 127.0946585
    },
    {
      "Line": "신분당",
      "Name": "성복역",
      "lat": 37.31351444,
      "lng": 127.0803656
    },
    {
      "Line": "신분당",
      "Name": "상현역",
      "lat": 37.29782538,
      "lng": 127.069341
    },
    {
      "Line": "신분당",
      "Name": "광교중앙역",
      "lat": 37.28837349,
      "lng": 127.0517173
    },
    {
      "Line": "신분당",
      "Name": "양재시민의숲역",
      "lat": 37.47011519,
      "lng": 127.0384578
    },
    {
      "Line": "신분당",
      "Name": "판교역",
      "lat": 37.39476222,
      "lng": 127.1111922
    },
    {
      "Line": "신분당",
      "Name": "광교역",
      "lat": 37.30210833,
      "lng": 127.0442598
    },
    {
      "Line": "신분당",
      "Name": "강남역",
      "lat": 37.49808544,
      "lng": 127.0279777
    },
    {
      "Line": "신분당",
      "Name": "양재역",
      "lat": 37.48456871,
      "lng": 127.034146
    },
    {
      "Line": "신분당",
      "Name": "청계산입구역",
      "lat": 37.44834032,
      "lng": 127.0547203
    },
    {
      "Line": "에버라인",
      "Name": "강남대역",
      "lat": 37.27017075,
      "lng": 127.1260489
    },
    {
      "Line": "에버라인",
      "Name": "지석역",
      "lat": 37.26972649,
      "lng": 127.1366461
    },
    {
      "Line": "에버라인",
      "Name": "어정역",
      "lat": 37.27494413,
      "lng": 127.1437363
    },
    {
      "Line": "에버라인",
      "Name": "동백역",
      "lat": 37.26909419,
      "lng": 127.152677
    },
    {
      "Line": "에버라인",
      "Name": "초당역",
      "lat": 37.26079569,
      "lng": 127.1594467
    },
    {
      "Line": "에버라인",
      "Name": "시청.용인대역",
      "lat": 37.23943123,
      "lng": 127.1788761
    },
    {
      "Line": "에버라인",
      "Name": "명지대역",
      "lat": 37.23806189,
      "lng": 127.1902777
    },
    {
      "Line": "에버라인",
      "Name": "김량장역",
      "lat": 37.23730938,
      "lng": 127.1985928
    },
    {
      "Line": "에버라인",
      "Name": "운동장.송담대역",
      "lat": 37.23790397,
      "lng": 127.2091202
    },
    {
      "Line": "에버라인",
      "Name": "고진역",
      "lat": 37.24463476,
      "lng": 127.2141656
    },
    {
      "Line": "에버라인",
      "Name": "보평역",
      "lat": 37.25904358,
      "lng": 127.2184675
    },
    {
      "Line": "에버라인",
      "Name": "둔전역",
      "lat": 37.26719783,
      "lng": 127.2136206
    },
    {
      "Line": "에버라인",
      "Name": "삼가역",
      "lat": 37.24204192,
      "lng": 127.1681754
    },
    {
      "Line": "에버라인",
      "Name": "전대.에버랜드역",
      "lat": 37.28546037,
      "lng": 127.2193783
    },
    {
      "Line": "에버라인",
      "Name": "기흥역",
      "lat": 37.27544207,
      "lng": 127.1170374
    },
    {
      "Line": "우이신설",
      "Name": "북한산우이역",
      "lat": 37.66298795,
      "lng": 127.012739
    },
    {
      "Line": "우이신설",
      "Name": "솔밭공원역",
      "lat": 37.65597826,
      "lng": 127.0132591
    },
    {
      "Line": "우이신설",
      "Name": "4·19민주묘지역",
      "lat": 37.64952717,
      "lng": 127.0136886
    },
    {
      "Line": "우이신설",
      "Name": "가오리역",
      "lat": 37.64163416,
      "lng": 127.016769
    },
    {
      "Line": "우이신설",
      "Name": "삼양사거리역",
      "lat": 37.62130733,
      "lng": 127.0204798
    },
    {
      "Line": "우이신설",
      "Name": "솔샘역",
      "lat": 37.62024516,
      "lng": 127.0135699
    },
    {
      "Line": "우이신설",
      "Name": "북한산보국문역",
      "lat": 37.61211873,
      "lng": 127.0082453
    },
    {
      "Line": "우이신설",
      "Name": "정릉역",
      "lat": 37.6026038,
      "lng": 127.0135214
    },
    {
      "Line": "우이신설",
      "Name": "성신여대입구역",
      "lat": 37.59296272,
      "lng": 127.0171204
    },
    {
      "Line": "우이신설",
      "Name": "보문역",
      "lat": 37.58553809,
      "lng": 127.0199945
    },
    {
      "Line": "우이신설",
      "Name": "신설동역",
      "lat": 37.57602276,
      "lng": 127.0244522
    },
    {
      "Line": "우이신설",
      "Name": "화계역",
      "lat": 37.6340838,
      "lng": 127.0174924
    },
    {
      "Line": "우이신설",
      "Name": "삼양역",
      "lat": 37.62691185,
      "lng": 127.0181477
    },
    {
      "Line": "의정부",
      "Name": "동오역",
      "lat": 37.74525189,
      "lng": 127.0569805
    },
    {
      "Line": "의정부",
      "Name": "효자역",
      "lat": 37.75397977,
      "lng": 127.0772084
    },
    {
      "Line": "의정부",
      "Name": "어룡역",
      "lat": 37.74267613,
      "lng": 127.0851841
    },
    {
      "Line": "의정부",
      "Name": "새말역",
      "lat": 37.74883428,
      "lng": 127.0637459
    },
    {
      "Line": "의정부",
      "Name": "경기도청북부청사역",
      "lat": 37.75075784,
      "lng": 127.0715997
    },
    {
      "Line": "의정부",
      "Name": "곤제역",
      "lat": 37.75053356,
      "lng": 127.0838088
    },
    {
      "Line": "의정부",
      "Name": "회룡역",
      "lat": 37.72379508,
      "lng": 127.0472772
    },
    {
      "Line": "의정부",
      "Name": "범골역",
      "lat": 37.72878786,
      "lng": 127.0436504
    },
    {
      "Line": "의정부",
      "Name": "경전철의정부역",
      "lat": 37.73725711,
      "lng": 127.0432923
    },
    {
      "Line": "의정부",
      "Name": "의정부시청역",
      "lat": 37.73922403,
      "lng": 127.0348299
    },
    {
      "Line": "의정부",
      "Name": "흥선역",
      "lat": 37.74327768,
      "lng": 127.0371691
    },
    {
      "Line": "의정부",
      "Name": "의정부중앙역",
      "lat": 37.7436695,
      "lng": 127.0496498
    },
    {
      "Line": "의정부",
      "Name": "발곡역",
      "lat": 37.72714428,
      "lng": 127.052951
    },
    {
      "Line": "의정부",
      "Name": "송산역",
      "lat": 37.73726885,
      "lng": 127.0871973
    },
    {
      "Line": "의정부",
      "Name": "탑석역",
      "lat": 37.73348351,
      "lng": 127.0888945
    },
    {
      "Line": "인천1호선",
      "Name": "계양역",
      "lat": 37.57176634,
      "lng": 126.7362714
    },
    {
      "Line": "인천1호선",
      "Name": "귤현역",
      "lat": 37.56628441,
      "lng": 126.7426746
    },
    {
      "Line": "인천1호선",
      "Name": "박촌역",
      "lat": 37.55365762,
      "lng": 126.7450494
    },
    {
      "Line": "인천1호선",
      "Name": "임학역",
      "lat": 37.54499402,
      "lng": 126.7386289
    },
    {
      "Line": "인천1호선",
      "Name": "계산역",
      "lat": 37.54329353,
      "lng": 126.7277267
    },
    {
      "Line": "인천1호선",
      "Name": "경인교대입구역",
      "lat": 37.53810989,
      "lng": 126.7226087
    },
    {
      "Line": "인천1호선",
      "Name": "작전역",
      "lat": 37.53025304,
      "lng": 126.7225473
    },
    {
      "Line": "인천1호선",
      "Name": "갈산역",
      "lat": 37.51711408,
      "lng": 126.7215327
    },
    {
      "Line": "인천1호선",
      "Name": "부평구청역",
      "lat": 37.50741907,
      "lng": 126.721433
    },
    {
      "Line": "인천1호선",
      "Name": "부평시장역",
      "lat": 37.49835698,
      "lng": 126.7222809
    },
    {
      "Line": "인천1호선",
      "Name": "부평역",
      "lat": 37.48944182,
      "lng": 126.7243266
    },
    {
      "Line": "인천1호선",
      "Name": "동수역",
      "lat": 37.48549993,
      "lng": 126.7185973
    },
    {
      "Line": "인천1호선",
      "Name": "부평삼거리역",
      "lat": 37.47782129,
      "lng": 126.7102825
    },
    {
      "Line": "인천1호선",
      "Name": "인천시청역",
      "lat": 37.45772679,
      "lng": 126.7022222
    },
    {
      "Line": "인천1호선",
      "Name": "예술회관역",
      "lat": 37.44851514,
      "lng": 126.7009026
    },
    {
      "Line": "인천1호선",
      "Name": "인천터미널역",
      "lat": 37.44191665,
      "lng": 126.6996858
    },
    {
      "Line": "인천1호선",
      "Name": "문학경기장역",
      "lat": 37.43463332,
      "lng": 126.6984495
    },
    {
      "Line": "인천1호선",
      "Name": "선학역",
      "lat": 37.42693984,
      "lng": 126.6989096
    },
    {
      "Line": "인천1호선",
      "Name": "신연수역",
      "lat": 37.41809734,
      "lng": 126.6940197
    },
    {
      "Line": "인천1호선",
      "Name": "원인재역",
      "lat": 37.41236884,
      "lng": 126.6878756
    },
    {
      "Line": "인천1호선",
      "Name": "동춘역",
      "lat": 37.40456527,
      "lng": 126.6808375
    },
    {
      "Line": "인천1호선",
      "Name": "동막역",
      "lat": 37.39793159,
      "lng": 126.6734345
    },
    {
      "Line": "인천1호선",
      "Name": "캠퍼스타운역",
      "lat": 37.38843935,
      "lng": 126.6622061
    },
    {
      "Line": "인천1호선",
      "Name": "테크노파크역",
      "lat": 37.38227737,
      "lng": 126.6562946
    },
    {
      "Line": "인천1호선",
      "Name": "지식정보단지역",
      "lat": 37.3774892,
      "lng": 126.6458615
    },
    {
      "Line": "인천1호선",
      "Name": "인천대입구역",
      "lat": 37.38619191,
      "lng": 126.6395197
    },
    {
      "Line": "인천1호선",
      "Name": "센트럴파크역",
      "lat": 37.39284549,
      "lng": 126.6349707
    },
    {
      "Line": "인천1호선",
      "Name": "국제업무지구역",
      "lat": 37.39964339,
      "lng": 126.6305332
    },
    {
      "Line": "인천1호선",
      "Name": "간석오거리역",
      "lat": 37.46707543,
      "lng": 126.707905
    },
    {
      "Line": "인천2호선",
      "Name": "가정중앙시장역",
      "lat": 37.51752274,
      "lng": 126.6768052
    },
    {
      "Line": "인천2호선",
      "Name": "검단사거리역",
      "lat": 37.60165397,
      "lng": 126.6564203
    },
    {
      "Line": "인천2호선",
      "Name": "마전역",
      "lat": 37.59763047,
      "lng": 126.6672189
    },
    {
      "Line": "인천2호선",
      "Name": "독정역",
      "lat": 37.58484283,
      "lng": 126.6759936
    },
    {
      "Line": "인천2호선",
      "Name": "검암역",
      "lat": 37.56924921,
      "lng": 126.6736388
    },